id;code_postal;adresse;ville;latitude;longitude;prix_sp95_maj;prix_sp95;prix_e85_maj;prix_e85;prix_e10_maj;prix_e10;prix_sp98_maj;prix_sp98;debut_rupture_sp95_temporaire;type_rupture_sp95;debut_rupture_e85_temporaire;type_rupture_e85;carburants_disponibles;carburants_indisponibles;carburants_en_rupture_temporaire;carburants_en_rupture_definitive;automate_24-24;services_proposes;departement;code_departement;region;code_region
51230004;51320;Aire de Sommesous - A26;Sommesous;48.729; 4.228;;;;;2025-01-28T09:30:00+00:00;1.895;2025-01-28T09:30:00+00:00;2.028;2020-12-17T14:30:55+00:00;definitive;2020-12-17T14:30:55+00:00;definitive;Gazole,GPLc,E10,SP98;SP95,E85;;"SP95;E85";Oui;Toilettes publiques,Douches,Boutique alimentaire,Boutique non alimentaire,Restauration à emporter,Restauration sur place,Bar,Station de gonflage,Aire de camping-cars,Espace bébé,Bornes électriques,Wifi,Automate CB 24/24,DAB (Distributeur automatique de billets);Marne;51;Grand Est;44
1200001;1200;69 Rue de la République;Valserhône;46.106; 5.823;;;;;2025-01-30T10:34:10+00:00;1.789;2025-01-30T10:34:10+00:00;1.879;2019-08-27T14:44:09+00:00;definitive;2017-12-08T08:19:23+00:00;definitive;Gazole,E10,SP98;SP95,E85,GPLc;;"SP95;E85;GPLc";Non;Vente de gaz domestique (Butane, Propane),DAB (Distributeur automatique de billets);Ain;1;Auvergne-Rhône-Alpes;84
38080007;38080;A43 AIRE DE L'ISLE-D'ABEAU SUD;L'Isle-d'Abeau;45.612; 5.21;;;2025-01-28T06:00:00+00:00;1.039;2025-01-28T06:00:00+00:00;1.989;2025-01-28T06:00:00+00:00;2.089;2018-05-10T09:06:29+00:00;definitive;;;Gazole,E85,GPLc,E10,SP98;SP95;;SP95;Oui;Toilettes publiques,Douches,Relais colis,Boutique alimentaire,Boutique non alimentaire,Restauration à emporter,Station de gonflage,Carburant additivé,Piste poids lourds,Espace bébé,Bornes électriques,Automate CB 24/24,DAB (Distributeur automatique de billets);Isère;38;Auvergne-Rhône-Alpes;84
31100003;31100;30 Chemin de Ferro-Lébrès;Toulouse;43.58449; 1.37228;;;2024-10-26T20:00:00+00:00;0.758;;;2025-02-01T13:54:07+00:00;1.835;2024-11-19T08:37:47+00:00;definitive;;;Gazole,E85,SP98;SP95,GPLc,E10;E10;"SP95;GPLc";Non;Station de gonflage,Lavage automatique,DAB (Distributeur automatique de billets);Haute-Garonne;31;Occitanie;76
88700001;88700;Rue Charles Gratia;Rambervillers;48.341; 6.636;;;;;2025-01-20T10:38:25+00:00;1.772;;;2018-06-06T18:09:55+00:00;definitive;2019-04-10T10:57:04+00:00;definitive;Gazole,E10;SP95,E85,GPLc,SP98;;"SP95;E85;GPLc;SP98";Non;;Vosges;88;Grand Est;44
51110002;51110;ZAC du Val des Bois;Warmeriville;49.349; 4.209;2025-01-24T06:58:44+00:00;1.785;2025-01-03T07:42:43+00:00;0.758;2025-01-24T06:58:45+00:00;1.739;2025-01-21T12:02:45+00:00;1.829;;;;;Gazole,SP95,E85,E10,SP98;GPLc;;GPLc;Oui;Laverie,Relais colis,Boutique alimentaire,Restauration à emporter,Station de gonflage,Piste poids lourds,Lavage manuel,GNV,Vente de gaz domestique (Butane, Propane),Wifi,Automate CB 24/24;Marne;51;Grand Est;44
65000008;65000;87 Rue Alsace Lorraine;Tarbes;43.250036220000005; 0.07205866;;;2025-01-31T07:30:03+00:00;0.849;2025-01-31T07:30:03+00:00;1.789;2025-01-31T07:30:03+00:00;1.879;2022-03-24T11:51:32+00:00;definitive;;;Gazole,E85,E10,SP98;SP95,GPLc;;"SP95;GPLc";Non;Station de gonflage,Location de véhicule,Piste poids lourds,Lavage manuel,Vente de gaz domestique (Butane, Propane),DAB (Distributeur automatique de billets);Hautes-Pyrénées;65;Occitanie;76
80290001;80290;RUE DU CAPITAINE FAY;Poix-de-Picardie;49.776; 1.978;;;;;2025-01-15T10:19:33+00:00;1.745;2025-01-15T10:19:33+00:00;1.865;2023-07-29T11:55:19+00:00;definitive;2017-09-29T16:38:40+00:00;definitive;Gazole,E10,SP98;SP95,E85,GPLc;;"SP95;E85;GPLc";Non;;Somme;80;Hauts-de-France;32
62280002;62280;Route de Calais;Saint-Martin-Boulogne;50.737; 1.622;2025-01-30T08:44:41+00:00;1.799;;;;;2025-01-30T08:44:42+00:00;1.819;;;2017-11-08T15:01:36+00:00;definitive;Gazole,SP95,SP98;E85,GPLc,E10;;"E85;GPLc;E10";Non;Station de gonflage,Vente de gaz domestique (Butane, Propane),DAB (Distributeur automatique de billets);Pas-de-Calais;62;Hauts-de-France;32
42120004;42120;31 boulevard Charles de Gaulle;Le Coteau;46.01495; 4.09629;;;2025-01-31T07:26:42+00:00;0.849;2025-01-31T07:26:42+00:00;1.871;2025-01-31T07:26:42+00:00;1.981;2022-08-29T07:42:11+00:00;definitive;;;Gazole,E85,E10,SP98;SP95,GPLc;;"SP95;GPLc";Non;Toilettes publiques,Boutique alimentaire,Boutique non alimentaire,Station de gonflage,Carburant additivé,Location de véhicule,Piste poids lourds,Lavage automatique,Lavage manuel,Services réparation / entretien,DAB (Distributeur automatique de billets);Loire;42;Auvergne-Rhône-Alpes;84
86500001;86500;106 Avenue Victor Hugo;Montmorillon;46.431; 0.884;;;;;2025-01-29T19:25:53+00:00;1.72;2025-01-29T19:25:54+00:00;1.817;2018-01-02T11:45:14+00:00;definitive;2018-01-02T11:45:14+00:00;definitive;Gazole,E10,SP98;SP95,E85,GPLc;;"SP95;E85;GPLc";Non;Toilettes publiques,Boutique alimentaire,Boutique non alimentaire,Location de véhicule,Vente de gaz domestique (Butane, Propane),DAB (Distributeur automatique de billets);Vienne;86;Nouvelle-Aquitaine;75
83136007;83136;ZAC DE FRAY REDON;Rocbaron;43.318; 6.076;;;2025-02-01T00:01:00+00:00;0.799;2025-02-01T00:01:00+00:00;1.823;2025-02-01T00:01:00+00:00;1.933;2017-08-31T08:30:32+00:00;definitive;;;Gazole,E85,E10,SP98;SP95,GPLc;;"SP95;GPLc";Oui;Boutique alimentaire,Boutique non alimentaire,Restauration à emporter,Restauration sur place,Station de gonflage,Carburant additivé,Piste poids lourds,Lavage automatique,Lavage manuel,Vente de gaz domestique (Butane, Propane),Vente d'additifs carburants,Wifi,Automate CB 24/24;Var;83;Provence-Alpes-Côte d'Azur;93
13340001;13340;LE PLAN;Rognac;43.492; 5.229;2025-02-01T10:21:13+00:00;1.795;2025-02-01T10:21:13+00:00;0.815;;;2025-02-01T10:21:14+00:00;1.839;;;;;Gazole,SP95,E85,SP98;GPLc,E10;;"GPLc;E10";Non;Relais colis,Location de véhicule,Vente de gaz domestique (Butane, Propane),Wifi;Bouches-du-Rhône;13;Provence-Alpes-Côte d'Azur;93
83120001;83120;164 Route du Plan-de-la-Tour;Sainte-Maxime;43.32; 6.628;;;;;2025-02-01T08:39:12+00:00;1.749;2025-02-01T08:39:12+00:00;1.845;2017-09-06T15:53:57+00:00;definitive;2017-09-06T15:53:57+00:00;definitive;Gazole,E10,SP98;SP95,E85,GPLc;;"SP95;E85;GPLc";Oui;Relais colis,Restauration sur place,Station de gonflage,Location de véhicule,Piste poids lourds,Lavage automatique,Vente de gaz domestique (Butane, Propane),Automate CB 24/24,DAB (Distributeur automatique de billets);Var;83;Provence-Alpes-Côte d'Azur;93
26260002;26260;Avenue du Général de Gaulle;Saint-Donat-sur-l'Herbasse;45.12; 4.985;;;;;2025-01-17T07:21:02+00:00;1.775;2025-01-17T07:21:02+00:00;1.87;2018-11-20T08:03:37+00:00;definitive;2018-11-20T08:03:37+00:00;definitive;Gazole,E10,SP98;SP95,E85,GPLc;;"SP95;E85;GPLc";Oui;Boutique alimentaire,Restauration à emporter,Vente de pétrole lampant,Station de gonflage,Carburant additivé,Lavage automatique,Vente de gaz domestique (Butane, Propane),Automate CB 24/24,DAB (Distributeur automatique de billets);Drôme;26;Auvergne-Rhône-Alpes;84
69400004;69400;695 Avenue Théodore Braun;Villefranche-sur-Saône;45.979; 4.739;;;;;2025-01-31T08:36:55+00:00;1.856;;;2022-09-15T08:34:47+00:00;definitive;2021-09-02T17:32:37+00:00;definitive;E10;Gazole,SP95,E85,GPLc,SP98;;"Gazole;SP95;E85;SP98";Non;Station de gonflage,Carburant additivé,Location de véhicule,Piste poids lourds,Bornes électriques;Rhône;69;Auvergne-Rhône-Alpes;84
67600009;67600;1 rue des tisserands;Hilsenheim;48.281; 7.555;2025-02-01T09:21:00+00:00;1.778;;;2025-02-01T09:21:00+00:00;1.722;;;;;2018-02-26T13:21:03+00:00;definitive;Gazole,SP95,E10;E85,GPLc,SP98;;"E85;GPLc;SP98";Oui;Carburant additivé,Automate CB 24/24;Bas-Rhin;67;Grand Est;44
78990004;78990;Rue du Fond des Roches;Élancourt;48.776; 1.954;2025-01-16T06:39:53+00:00;1.848;;;;;2025-01-16T06:39:53+00:00;1.896;;;2017-12-22T09:35:38+00:00;definitive;Gazole,SP95,SP98;E85,GPLc,E10;;"E85;GPLc;E10";Non;;Yvelines;78;Île-de-France;11
68701001;68700;Faubourg de Belfort;Cernay;47.795; 7.172;;;;;2025-01-31T19:00:00+00:00;1.799;2025-01-31T19:00:00+00:00;1.909;2022-04-08T18:39:11+00:00;definitive;2017-09-27T19:26:02+00:00;definitive;Gazole,E10,SP98;SP95,E85,GPLc;;"SP95;E85;GPLc";Oui;Toilettes publiques,Relais colis,Boutique alimentaire,Boutique non alimentaire,Restauration à emporter,Station de gonflage,Carburant additivé,Location de véhicule,Piste poids lourds,Lavage automatique,Services réparation / entretien,Bornes électriques,Vente d'additifs carburants,Wifi,Automate CB 24/24;Haut-Rhin;68;Grand Est;44
78910001;78910;17 rue de la vallée Jean Leloup - Route de Béhoust;Orgerus;48.834468619511; 1.70957925703;;;;;2025-01-20T16:20:40+00:00;1.758;2025-01-20T16:20:40+00:00;1.856;2017-08-30T11:42:47+00:00;definitive;2017-08-30T11:42:47+00:00;definitive;Gazole,E10,SP98;SP95,E85,GPLc;;"SP95;E85;GPLc";Oui;Vente de gaz domestique (Butane, Propane),Automate CB 24/24;Yvelines;78;Île-de-France;11
15000012;15000;Avenue de Conthe;Aurillac;44.91394; 2.42741;2025-01-27T17:46:38+00:00;1.83;2025-01-08T10:53:41+00:00;0.74;;;2025-01-27T17:46:39+00:00;1.89;;;;;Gazole,SP95,E85,GPLc,SP98;E10;;E10;Non;Vente de fioul domestique,Vente de pétrole lampant,Carburant additivé,DAB (Distributeur automatique de billets);Cantal;15;Auvergne-Rhône-Alpes;84
83200004;83200;95 Boulevard Général Brosset;Toulon;43.12814; 5.90563;2024-10-15T21:03:46+00:00;1.869;;;;;2024-10-15T21:03:47+00:00;1.969;;;2024-05-18T19:01:35+00:00;definitive;Gazole,SP95,SP98;E85,GPLc,E10;;"E85;GPLc;E10";Non;Toilettes publiques,Boutique alimentaire,Boutique non alimentaire,Restauration à emporter,Restauration sur place,Station de gonflage,Carburant additivé,Lavage automatique,Vente de gaz domestique (Butane, Propane),DAB (Distributeur automatique de billets);Var;83;Provence-Alpes-Côte d'Azur;93
33650004;33650;95 Avenue Charles de Gaulle;Saucats;44.66; -0.597;2025-01-29T11:56:51+00:00;1.769;;;2025-01-29T11:56:51+00:00;1.719;;;;;2018-01-26T16:49:46+00:00;definitive;Gazole,SP95,E10;E85,GPLc,SP98;;"E85;GPLc;SP98";Non;Laverie,Boutique alimentaire,Carburant additivé,Piste poids lourds,Lavage automatique,Vente de gaz domestique (Butane, Propane),DAB (Distributeur automatique de billets);Gironde;33;Nouvelle-Aquitaine;75
35250001;35250;2, allée de la Piloinais;Saint-Aubin-d'Aubigné;48.262; -1.618;;;2025-01-24T08:42:24+00:00;0.739;2025-01-31T09:18:11+00:00;1.699;2025-01-31T09:18:11+00:00;1.805;2017-09-04T09:32:52+00:00;definitive;;;Gazole,E85,E10,SP98;SP95,GPLc;;"SP95;GPLc";Oui;Toilettes publiques,Laverie,Relais colis,Vente de pétrole lampant,Station de gonflage,Location de véhicule,Piste poids lourds,Lavage automatique,Lavage manuel,Vente de gaz domestique (Butane, Propane),Automate CB 24/24,DAB (Distributeur automatique de billets);Ille-et-Vilaine;35;Bretagne;53
17137001;17137;44 Avenue de la Rochelle;Nieul-sur-Mer;46.198; -1.158;2025-01-31T18:36:21+00:00;1.901;;;;;;;;;2018-06-28T11:54:47+00:00;definitive;Gazole,SP95;E85,GPLc,E10,SP98;;"E85;GPLc;E10;SP98";Oui;Carburant additivé,Services réparation / entretien,Vente de gaz domestique (Butane, Propane),Vente d'additifs carburants,Automate CB 24/24;Charente-Maritime;17;Nouvelle-Aquitaine;75
87270005;87270;187 Avenue de Limoges;Couzeix;45.879; 1.238;;;;;2025-01-25T09:11:06+00:00;1.749;2025-01-16T11:06:04+00:00;1.839;2024-05-21T15:52:18+00:00;definitive;2024-05-21T15:52:19+00:00;definitive;Gazole,E10,SP98;SP95,E85,GPLc;;"SP95;E85;GPLc";Oui;Laverie,Boutique alimentaire,Boutique non alimentaire,Station de gonflage,Carburant additivé,Vente de gaz domestique (Butane, Propane),Wifi,Automate CB 24/24,DAB (Distributeur automatique de billets);Haute-Vienne;87;Nouvelle-Aquitaine;75
54600004;54600;110 Avenue Paul Muller;Villers-lès-Nancy;48.657; 6.112;;;2024-11-05T07:12:19+00:00;0.758;2025-01-31T09:15:21+00:00;1.718;2025-01-31T09:15:21+00:00;1.799;2018-08-16T11:36:24+00:00;definitive;;;Gazole,E85,E10,SP98;SP95,GPLc;;"SP95;GPLc";Non;Lavage automatique,DAB (Distributeur automatique de billets);Meurthe-et-Moselle;54;Grand Est;44
33000022;33000;2 BD DU PRESIDENT WILSON;Bordeaux;44.837; -0.599;;;2025-02-01T00:01:00+00:00;0.789;2025-02-01T00:01:00+00:00;1.809;2025-02-01T00:01:00+00:00;1.919;2018-01-30T10:24:21+00:00;definitive;;;Gazole,E85,E10,SP98;SP95,GPLc;;"SP95;GPLc";Oui;Toilettes publiques,Boutique alimentaire,Boutique non alimentaire,Station de gonflage,Carburant additivé,Vente de gaz domestique (Butane, Propane),Wifi,Automate CB 24/24,DAB (Distributeur automatique de billets);Gironde;33;Nouvelle-Aquitaine;75
72350001;72350;ROUTE DE SILLE;Brûlon;47.974; -0.231;;;;;2025-02-01T08:28:11+00:00;1.819;2025-02-01T08:28:11+00:00;1.929;2017-09-25T18:36:49+00:00;definitive;2017-09-25T18:36:49+00:00;definitive;Gazole,E10,SP98;SP95,E85,GPLc;;"SP95;E85;GPLc";Oui;Toilettes publiques,Boutique non alimentaire,Station de gonflage,Carburant additivé,Piste poids lourds,Lavage manuel,Services réparation / entretien,Automate CB 24/24;Sarthe;72;Pays de la Loire;52
44800001;44800;325 Route de Vannes;Saint-Herblain;47.247; -1.606;;;2025-01-30T10:54:58+00:00;0.732;2025-01-30T10:54:58+00:00;1.693;2025-01-30T10:54:59+00:00;1.789;2020-01-30T12:51:22+00:00;temporaire;;;Gazole,E85,E10,SP98;SP95,GPLc;SP95;GPLc;Non;Relais colis,Station de gonflage,Vente de gaz domestique (Butane, Propane),DAB (Distributeur automatique de billets);Loire-Atlantique;44;Pays de la Loire;52
58160002;58160;24, Route de Nevers;Sauvigny-les-Bois;46.940814257977; 3.2581613048544003;2025-01-16T07:59:24+00:00;1.969;;;;;;;;;2017-08-31T10:55:31+00:00;definitive;Gazole,SP95;E85,GPLc,E10,SP98;;"E85;GPLc;E10;SP98";Oui;Toilettes publiques,Boutique alimentaire,Boutique non alimentaire,Station de gonflage,Piste poids lourds,Services réparation / entretien,Automate CB 24/24;Nièvre;58;Bourgogne-Franche-Comté;27
31250006;31250;CHEMIN DES BORDES;Revel;43.463772; 2.005801;;;2024-10-12T09:41:43+00:00;0.758;2025-01-30T14:51:03+00:00;1.713;2025-01-30T14:51:04+00:00;1.809;2024-10-12T09:42:16+00:00;definitive;;;Gazole,E85,E10,SP98;SP95,GPLc;;"SP95;GPLc";Non;Automate CB 24/24;Haute-Garonne;31;Occitanie;76
29700004;29700;RUE DE BEL AIR 35;Pluguffan;47.972251594559; -4.1352462363191;;;;;2025-01-28T18:14:24+00:00;1.809;;;2025-01-28T18:14:24+00:00;definitive;;;Gazole,E10;SP95,E85,GPLc,SP98;;SP95;Oui;Automate CB 24/24;Finistère;29;Bretagne;53
40240008;40240;15 avenue Guillaume de Villaret;Saint-Justin;43.977376; -0.235533;2025-01-31T12:14:09+00:00;1.799;;;;;2025-01-31T12:14:09+00:00;1.849;;;2024-10-14T13:53:54+00:00;definitive;Gazole,SP95,SP98;E85,GPLc,E10;;"E85;GPLc;E10";Oui;Automate CB 24/24;Landes;40;Nouvelle-Aquitaine;75
56100008;56100;Rue Alfred Dreyfus;Lorient;47.747; -3.388;;;2025-01-17T10:44:28+00:00;0.758;2025-01-31T09:48:52+00:00;1.715;2025-01-31T09:48:52+00:00;1.809;2017-09-09T15:30:50+00:00;definitive;;;Gazole,E85,E10,SP98;SP95,GPLc;;"SP95;GPLc";Oui;Toilettes publiques,Relais colis,Boutique alimentaire,Boutique non alimentaire,Restauration à emporter,Restauration sur place,Bar,Vente de pétrole lampant,Station de gonflage,Lavage automatique,Vente de gaz domestique (Butane, Propane),Bornes électriques,Vente d'additifs carburants,Automate CB 24/24,DAB (Distributeur automatique de billets);Morbihan;56;Bretagne;53
34350003;34350;ZAC VIA EUROPA BEZIERS OUEST A9 SORTIE 36;Vendres;43.295950136900004; 3.21755178874;2025-01-24T09:36:23+00:00;1.849;;;2025-01-29T13:24:57+00:00;1.799;;;;;2018-11-12T09:37:06+00:00;definitive;Gazole,SP95,GPLc,E10;E85,SP98;;"E85;SP98";Non;Toilettes publiques,Douches,Laverie,Boutique alimentaire,Boutique non alimentaire,Restauration à emporter,Restauration sur place,Bar,Vente de fioul domestique,Station de gonflage,Carburant additivé,Piste poids lourds;Hérault;34;Occitanie;76
76570001;76570;RUE DES ACACIAS;Pavilly;49.564; 0.952;2025-02-01T09:33:43+00:00;1.769;;;;;2025-02-01T09:33:43+00:00;1.799;;;2017-09-03T08:37:27+00:00;definitive;Gazole,SP95,SP98;E85,GPLc,E10;;"E85;GPLc;E10";Oui;Toilettes publiques,Relais colis,Boutique alimentaire,Station de gonflage,Carburant additivé,Piste poids lourds,Lavage automatique,Lavage manuel,Vente de gaz domestique (Butane, Propane),Automate CB 24/24,DAB (Distributeur automatique de billets);Seine-Maritime;76;Normandie;28
60120002;60120;Rue d'Amiens;Breteuil;49.63618; 2.29025;2025-01-31T12:06:28+00:00;1.767;;;;;2025-01-31T12:06:28+00:00;1.849;;;2023-10-03T14:50:46+00:00;definitive;Gazole,SP95,SP98;E85,GPLc,E10;;"E85;GPLc;E10";Non;Relais colis,Location de véhicule,Vente de gaz domestique (Butane, Propane),DAB (Distributeur automatique de billets);Oise;60;Hauts-de-France;32
6345001;6345;31 Route de Laghet;La Trinité;43.743310338554004; 7.3213261846714;;;2025-01-30T08:51:00+00:00;0.839;2025-01-30T08:51:01+00:00;1.753;2025-01-30T08:51:01+00:00;1.862;2017-09-02T08:45:39+00:00;definitive;;;Gazole,E85,E10,SP98;SP95,GPLc;;"SP95;GPLc";Oui;Vente de pétrole lampant,Station de gonflage,Services réparation / entretien,Vente de gaz domestique (Butane, Propane),Automate CB 24/24;Alpes-Maritimes;6;Provence-Alpes-Côte d'Azur;93
62160002;62160;18 rue Casimir Beugnet;Bully-les-Mines;50.448; 2.72;2025-01-24T08:20:15+00:00;1.783;;;;;2025-01-24T08:20:15+00:00;1.822;;;2024-04-06T08:05:04+00:00;temporaire;Gazole,SP95,SP98;E85,GPLc,E10;"E85;GPLc";E10;Oui;Laverie,Location de véhicule,Piste poids lourds,Vente de gaz domestique (Butane, Propane),Automate CB 24/24;Pas-de-Calais;62;Hauts-de-France;32
24114001;24100;Route de Bordeaux;Bergerac;44.834924988994004; 0.44823906051395;2025-02-01T09:11:56+00:00;1.799;2024-12-21T19:01:00+00:00;0.757;2025-02-01T09:11:56+00:00;1.759;2025-02-01T09:11:56+00:00;1.833;;;;;Gazole,SP95,E85,GPLc,E10,SP98;;;;Non;Boutique alimentaire,Boutique non alimentaire,Vente de gaz domestique (Butane, Propane);Dordogne;24;Nouvelle-Aquitaine;75
91250004;91250;183 Route de Melun;Saintry-sur-Seine;48.594; 2.503;;;;;2025-01-31T08:52:09+00:00;1.843;2025-01-31T08:52:09+00:00;1.953;2017-08-30T08:50:11+00:00;definitive;2017-08-30T08:50:11+00:00;definitive;Gazole,E10,SP98;SP95,E85,GPLc;;"SP95;E85;GPLc";Oui;Toilettes publiques,Boutique alimentaire,Boutique non alimentaire,Station de gonflage,Carburant additivé,Services réparation / entretien,Vente de gaz domestique (Butane, Propane),Automate CB 24/24;Essonne;91;Île-de-France;11
22400001;22400;20 RUE DU DOCTEUR LAVERGNE;Lamballe-Armor;48.4672198707; -2.5215226986999997;2025-01-31T09:26:39+00:00;1.739;;;2025-01-27T09:24:41+00:00;1.699;2025-01-31T09:26:40+00:00;1.779;;;2017-12-07T15:52:21+00:00;definitive;Gazole,SP95,E10,SP98;E85,GPLc;;"E85;GPLc";Non;Vente de gaz domestique (Butane, Propane),DAB (Distributeur automatique de billets);Côtes-d'Armor;22;Bretagne;53
91760001;91760;Route de la Ferté-Alais;Itteville;48.50264; 2.34774;;;2025-01-11T08:39:57+00:00;0.758;2025-01-28T08:33:15+00:00;1.719;2025-01-28T08:33:15+00:00;1.799;2020-08-13T09:46:44+00:00;definitive;;;Gazole,E85,E10,SP98;SP95,GPLc;;"SP95;GPLc";Non;Vente de fioul domestique,Lavage manuel,Vente de gaz domestique (Butane, Propane),DAB (Distributeur automatique de billets);Essonne;91;Île-de-France;11
92400017;92400;72 BLD DE VERDUN;Courbevoie;48.902; 2.259;;;2025-02-01T00:01:00+00:00;0.839;2025-02-01T00:01:00+00:00;1.902;2025-02-01T00:01:00+00:00;1.99;2021-10-21T17:30:19+00:00;definitive;;;Gazole,E85,GPLc,E10,SP98;SP95;;SP95;Oui;Toilettes publiques,Boutique alimentaire,Boutique non alimentaire,Station de gonflage,Carburant additivé,Lavage automatique,Vente de gaz domestique (Butane, Propane),Vente d'additifs carburants,Wifi,Automate CB 24/24;Hauts-de-Seine;92;Île-de-France;11
31130003;31130;23 Avenue des Aérostiers;Balma;43.609; 1.489;;;2025-02-01T06:50:00+00:00;0.854;2025-02-01T06:50:00+00:00;1.751;2025-02-01T06:50:00+00:00;1.858;;;;;Gazole,E85,E10,SP98;SP95,GPLc;;;Non;;Haute-Garonne;31;Occitanie;76
31700004;31700;9 Avenue du Général Compans;Blagnac;43.626; 1.398;;;;;2025-02-01T06:50:00+00:00;1.77;2025-02-01T06:50:00+00:00;1.9;;;;;Gazole,E10,SP98;SP95,E85,GPLc;;;Non;;Haute-Garonne;31;Occitanie;76
40530002;40530;AUTOROUTE A63 COTE EST;Labenne;43.586; -1.42;;;;;2025-02-01T11:21:00+00:00;1.969;2025-02-01T11:21:00+00:00;2.079;;;2024-10-30T16:13:50+00:00;temporaire;Gazole,GPLc,E10,SP98;SP95,E85;E85;;Non;;Landes;40;Nouvelle-Aquitaine;75
84700004;84700;1238 ROUTE D'ORANGE;Sorgues;44.009; 4.873;;;2025-02-01T07:40:44+00:00;0.758;2025-02-01T07:40:45+00:00;1.753;2025-02-01T07:40:45+00:00;1.865;2022-12-06T13:12:09+00:00;definitive;;;Gazole,E85,E10,SP98;SP95,GPLc;;"SP95;GPLc";Oui;Laverie,Vente de pétrole lampant,Station de gonflage,Piste poids lourds,Lavage automatique,Lavage manuel,Vente de gaz domestique (Butane, Propane),Automate CB 24/24;Vaucluse;84;Provence-Alpes-Côte d'Azur;93
13100005;13100;AV MALACRIDA;Aix-en-Provence;43.518; 5.465;;;2025-02-01T06:50:00+00:00;0.836;2025-02-01T06:50:00+00:00;1.729;2025-02-01T06:50:00+00:00;1.839;;;;;Gazole,E85,E10,SP98;SP95,GPLc;;;Non;;Bouches-du-Rhône;13;Provence-Alpes-Côte d'Azur;93
20200016;20200;rond point du fango avenue jean zuccarelli;Bastia;42.703581401618; 9.4421935452675;2025-01-30T11:42:48+00:00;1.93;;;;;;;;;2022-03-04T07:41:04+00:00;definitive;Gazole,SP95;E85,GPLc,E10,SP98;;"E85;GPLc;E10;SP98";Oui;Toilettes publiques,Relais colis,Boutique alimentaire,Boutique non alimentaire,Station de gonflage,Location de véhicule,Lavage manuel,Services réparation / entretien,Vente de gaz domestique (Butane, Propane),Automate CB 24/24;Haute-Corse;2B;Corse;94
24200001;24200;Route de Brive;Sarlat-la-Canéda;44.92; 1.206;2025-01-20T18:24:43+00:00;1.81;;;;;2025-01-20T18:24:43+00:00;1.851;;;2017-09-07T10:01:58+00:00;definitive;Gazole,SP95,SP98;E85,GPLc,E10;;"E85;GPLc;E10";Oui;Vente de gaz domestique (Butane, Propane),Automate CB 24/24,DAB (Distributeur automatique de billets);Dordogne;24;Nouvelle-Aquitaine;75
92600007;92600;96 Avenue d'Argenteuil;Asnières-sur-Seine;48.915; 2.283;;;;;2025-01-29T12:33:54+00:00;1.939;2025-01-29T12:33:54+00:00;2.069;;;;;Gazole,E10,SP98;SP95,E85,GPLc;;;Non;Boutique alimentaire,Boutique non alimentaire,Station de gonflage,Carburant additivé,Lavage automatique,Vente de gaz domestique (Butane, Propane);Hauts-de-Seine;92;Île-de-France;11
85210010;85210;132 ROUTE DE NANTES;Sainte-Hermine;46.562323; -1.059185;;;;;2025-01-29T06:23:22+00:00;1.729;2025-01-29T06:23:23+00:00;1.819;2024-10-18T08:45:22+00:00;definitive;2024-10-18T08:45:22+00:00;definitive;Gazole,E10,SP98;SP95,E85,GPLc;;"SP95;E85;GPLc";Oui;Automate CB 24/24;Vendée;85;Pays de la Loire;52
44160003;44160;Route de Nantes-CS 20077;Pontchâteau;47.432; -2.083;;;;;2025-01-29T18:00:00+00:00;1.699;2025-01-29T18:00:00+00:00;1.789;2017-08-31T12:28:26+00:00;definitive;2017-09-01T11:24:36+00:00;definitive;Gazole,GPLc,E10,SP98;SP95,E85;;"SP95;E85";Oui;Lavage automatique,Automate CB 24/24,DAB (Distributeur automatique de billets);Loire-Atlantique;44;Pays de la Loire;52
91490003;91490;Grande Rue;Oncy-sur-École;48.39317; 2.46614;;;2024-09-12T09:25:00+00:00;0.758;2025-01-30T09:09:34+00:00;1.759;2025-01-30T09:09:34+00:00;1.839;2019-07-23T07:28:19+00:00;definitive;;;Gazole,E85,E10,SP98;SP95,GPLc;;"SP95;GPLc";Non;Vente de fioul domestique,Vente de gaz domestique (Butane, Propane),DAB (Distributeur automatique de billets);Essonne;91;Île-de-France;11
23170001;23170;ROUTE D'EVAUX LES BAINS;Chambon-sur-Voueize;46.186; 2.43;;;;;2025-01-28T16:21:08+00:00;1.759;2025-01-28T16:21:08+00:00;1.839;2022-04-12T14:42:18+00:00;definitive;2017-11-13T15:23:45+00:00;definitive;Gazole,E10,SP98;SP95,E85,GPLc;;"SP95;E85;GPLc";Oui;Laverie,Relais colis,Station de gonflage,Aire de camping-cars,Location de véhicule,Piste poids lourds,Lavage manuel,Automate CB 24/24;Creuse;23;Nouvelle-Aquitaine;75
68300004;68300;125 RUE DE MULHOUSE;Saint-Louis;47.599; 7.552;;;2025-02-01T00:01:00+00:00;0.759;2025-02-01T00:01:00+00:00;1.712;2025-02-01T00:01:00+00:00;1.813;2018-04-24T11:46:49+00:00;definitive;;;Gazole,E85,E10,SP98;SP95,GPLc;;"SP95;GPLc";Oui;Boutique alimentaire,Boutique non alimentaire,Station de gonflage,Carburant additivé,Piste poids lourds,Lavage automatique,Vente de gaz domestique (Butane, Propane),Automate CB 24/24;Haut-Rhin;68;Grand Est;44
38420004;38420;102 Route de Grenoble;Le Versoud;45.212; 5.857;;;;;2025-01-31T18:21:24+00:00;1.855;2025-01-31T18:21:24+00:00;1.965;2022-06-14T20:07:36+00:00;definitive;2022-06-14T20:07:36+00:00;definitive;Gazole,E10,SP98;SP95,E85,GPLc;;"SP95;E85;GPLc";Oui;Boutique non alimentaire,Vente de fioul domestique,Station de gonflage,Carburant additivé,Lavage automatique,Vente de gaz domestique (Butane, Propane),Automate CB 24/24;Isère;38;Auvergne-Rhône-Alpes;84
33320009;33320;1 CHEMIN DE GELES;Le Taillan-Médoc;44.912; -0.668;2025-01-24T18:21:11+00:00;1.779;;;;;2025-01-24T18:21:12+00:00;1.819;;;2022-09-15T17:17:53+00:00;definitive;Gazole,SP95,SP98;E85,GPLc,E10;;"E85;GPLc;E10";Oui;Toilettes publiques,Laverie,Relais colis,Boutique alimentaire,Boutique non alimentaire,Station de gonflage,Location de véhicule,Piste poids lourds,Lavage automatique,Vente de gaz domestique (Butane, Propane),Bornes électriques,Vente d'additifs carburants,Wifi,Automate CB 24/24,DAB (Distributeur automatique de billets);Gironde;33;Nouvelle-Aquitaine;75
33400009;33400;7 Rue Pierre Corneille;Talence;44.789; -0.587;;;;;2025-01-30T12:15:53+00:00;1.709;2025-01-30T12:15:52+00:00;1.879;;;;;Gazole,E10,SP98;SP95,E85,GPLc;;;Oui;Relais colis,Station de gonflage,Carburant additivé,Piste poids lourds,Automate CB 24/24;Gironde;33;Nouvelle-Aquitaine;75
72300009;72300;LE PETIT ERABLE, ROUTE DE LAVAL;Sablé-sur-Sarthe;47.856344215874; -0.36064983612302;;;2025-02-01T08:12:19+00:00;0.789;2025-02-01T08:12:19+00:00;1.739;2025-02-01T08:12:19+00:00;1.852;2022-11-12T10:33:12+00:00;definitive;;;Gazole,E85,E10,SP98;SP95,GPLc;;"SP95;GPLc";Oui;Station de gonflage,Carburant additivé,Piste poids lourds,GNV,Automate CB 24/24;Sarthe;72;Pays de la Loire;52
88160002;88160;35 Avenue de Verdun;Le Thillot;47.883; 6.758;;;;;2025-02-01T06:56:41+00:00;1.701;2025-02-01T06:56:42+00:00;1.796;2020-02-05T09:22:14+00:00;definitive;2020-02-08T13:21:12+00:00;definitive;Gazole,E10,SP98;SP95,E85,GPLc;;"SP95;E85;GPLc";Oui;Toilettes publiques,Relais colis,Boutique alimentaire,Boutique non alimentaire,Station de gonflage,Carburant additivé,Lavage automatique,Lavage manuel,Services réparation / entretien,Vente de gaz domestique (Butane, Propane),Automate CB 24/24;Vosges;88;Grand Est;44
88150004;88150;Rue d'Alsace;Thaon-les-Vosges;48.247; 6.425;;;;;2025-01-31T06:47:13+00:00;1.839;2025-01-31T06:47:13+00:00;1.949;2023-01-04T07:15:11+00:00;temporaire;2023-04-26T06:46:25+00:00;temporaire;Gazole,E10,SP98;SP95,E85,GPLc;"SP95;E85;GPLc";;Oui;Toilettes publiques,Station de gonflage,Carburant additivé,Piste poids lourds,Vente de gaz domestique (Butane, Propane),Vente d'additifs carburants,Automate CB 24/24;Vosges;88;Grand Est;44
13751002;13751;PLAN DE CAMPAGNE - BP 8;Cabriès;43.417902507331; 5.3603190980073;;;;;2025-01-31T07:55:24+00:00;1.701;2025-01-31T07:55:25+00:00;1.815;2024-06-25T07:20:59+00:00;temporaire;2024-07-17T07:38:30+00:00;definitive;Gazole,E10,SP98;SP95,E85,GPLc;SP95;"E85;GPLc";Oui;Automate CB 24/24;Bouches-du-Rhône;13;Provence-Alpes-Côte d'Azur;93
20130002;20130;Rue de la République;Cargèse;42.134; 8.598;2025-01-22T16:29:58+00:00;1.922;;;;;;;;;2024-04-29T14:16:59+00:00;definitive;Gazole,SP95;E85,GPLc,E10,SP98;;"E85;GPLc;E10;SP98";Oui;Vente de fioul domestique,Station de gonflage,Piste poids lourds,Lavage manuel,Automate CB 24/24;Corse-du-Sud;2A;Corse;94
13400001;13783;Route de gemenos;Aubagne;43.293; 5.593;;;2025-01-30T07:58:46+00:00;0.754;2025-01-30T07:58:46+00:00;1.738;2025-01-30T07:58:46+00:00;1.84;2022-10-27T10:51:01+00:00;definitive;;;Gazole,E85,GPLc,E10,SP98;SP95;;SP95;Oui;Station de gonflage,Carburant additivé,Aire de camping-cars,Vente de gaz domestique (Butane, Propane),Automate CB 24/24;Bouches-du-Rhône;13;Provence-Alpes-Côte d'Azur;93
44350006;44350;Route de la Baule;Guérande;47.304; -2.409;;;2024-10-17T08:52:48+00:00;0.758;2025-02-01T09:06:15+00:00;1.729;2025-02-01T09:06:32+00:00;1.839;2023-01-10T10:44:14+00:00;temporaire;;;Gazole,E85,E10,SP98;SP95,GPLc;"SP95;GPLc";;Oui;Toilettes publiques,Location de véhicule,Lavage automatique,Lavage manuel,Vente de gaz domestique (Butane, Propane),Automate CB 24/24,DAB (Distributeur automatique de billets);Loire-Atlantique;44;Pays de la Loire;52
92000018;92000;47 BLD DU HAVRE;Colombes;48.919; 2.223;;;2025-02-01T00:01:00+00:00;0.819;2025-02-01T00:01:00+00:00;1.893;;;2022-11-04T16:52:43+00:00;definitive;;;Gazole,E85,GPLc,E10;SP95,SP98;SP98;SP95;Non;Toilettes publiques,Boutique alimentaire,Boutique non alimentaire,Restauration à emporter,Restauration sur place,Station de gonflage,Lavage automatique,Lavage manuel,Vente de gaz domestique (Butane, Propane),Vente d'additifs carburants,Wifi;Hauts-de-Seine;92;Île-de-France;11
24660003;24660;Avenue Winston Churchill;Coulounieix-Chamiers;45.171; 0.689;2025-01-28T10:03:37+00:00;1.783;;;;;2025-01-28T10:03:37+00:00;1.833;;;;;Gazole,SP95,SP98;E85,GPLc,E10;;;Oui;Relais colis,Boutique alimentaire,Restauration à emporter,Piste poids lourds,Lavage manuel,Vente de gaz domestique (Butane, Propane),Automate CB 24/24,DAB (Distributeur automatique de billets);Dordogne;24;Nouvelle-Aquitaine;75
1500007;1500;CENTRE COMMERCIAL DE L'AVIATIONRAIS;Ambérieu-en-Bugey;45.972; 5.338;;;2024-09-19T10:38:20+00:00;0.759;2025-01-31T08:30:00+00:00;1.739;2025-01-31T08:30:00+00:00;1.839;2019-12-16T17:33:51+00:00;definitive;;;Gazole,E85,GPLc,E10,SP98;SP95;;SP95;Oui;Toilettes publiques,Restauration à emporter,Restauration sur place,Vente de pétrole lampant,Vente de gaz domestique (Butane, Propane),Automate CB 24/24,DAB (Distributeur automatique de billets);Ain;1;Auvergne-Rhône-Alpes;84
42152001;42152;38 TER AVENUE PASTEUR;L'Horme;45.485; 4.54;;;2025-01-31T09:50:40+00:00;0.775;2025-01-31T09:50:41+00:00;1.745;2025-01-31T09:50:41+00:00;1.845;2020-08-21T09:29:16+00:00;definitive;;;Gazole,E85,E10,SP98;SP95,GPLc;;"SP95;GPLc";Oui;Toilettes publiques,Laverie,Boutique alimentaire,Boutique non alimentaire,Location de véhicule,Vente de gaz domestique (Butane, Propane),Vente d'additifs carburants,Automate CB 24/24;Loire;42;Auvergne-Rhône-Alpes;84
93330006;93330;29-33 BLD DU MARECHAL FOCH;Neuilly-sur-Marne;48.85523; 2.52475;;;;;2025-02-01T00:01:00+00:00;1.789;2025-02-01T00:01:00+00:00;1.899;2023-02-16T17:12:32+00:00;definitive;2023-02-16T17:12:32+00:00;definitive;Gazole,E10,SP98;SP95,E85,GPLc;;"SP95;E85;GPLc";Non;Boutique alimentaire,Station de gonflage,Lavage automatique,Lavage manuel,Vente de gaz domestique (Butane, Propane),DAB (Distributeur automatique de billets);Seine-Saint-Denis;93;Île-de-France;11
24470001;24470;Avenue Léon Sireyjol;Saint-Pardoux-la-Rivière;45.49458; 0.74633;2025-01-14T15:38:50+00:00;1.799;;;;;2025-01-14T15:38:41+00:00;1.825;;;;;Gazole,SP95,SP98;E85,GPLc,E10;;;Non;Station de gonflage,Piste poids lourds,Lavage manuel,Vente de gaz domestique (Butane, Propane),DAB (Distributeur automatique de billets);Dordogne;24;Nouvelle-Aquitaine;75
13230002;13230;107, avenue du Port;Port-Saint-Louis-du-Rhône;43.39; 4.801;;;;;2025-01-31T08:30:00+00:00;1.746;2025-01-31T08:30:00+00:00;1.839;2020-02-21T08:27:30+00:00;definitive;2020-02-21T08:27:30+00:00;definitive;Gazole,E10,SP98;SP95,E85,GPLc;;"SP95;E85;GPLc";Non;Laverie,Boutique alimentaire,Boutique non alimentaire,Station de gonflage,Piste poids lourds,Lavage automatique,Vente de gaz domestique (Butane, Propane),DAB (Distributeur automatique de billets);Bouches-du-Rhône;13;Provence-Alpes-Côte d'Azur;93
91630007;91630;RN 20 DIRECTION PARIS;Avrainville;48.562; 2.227;;;;;2025-02-01T00:01:00+00:00;1.766;2025-02-01T00:01:00+00:00;1.867;2022-09-25T16:26:40+00:00;definitive;2022-09-25T16:26:40+00:00;definitive;Gazole,GPLc,E10,SP98;SP95,E85;;"SP95;E85";Non;Toilettes publiques,Boutique alimentaire,Boutique non alimentaire,Restauration à emporter,Restauration sur place,Bar,Station de gonflage,Carburant additivé,Piste poids lourds,Vente de gaz domestique (Butane, Propane),Wifi;Essonne;91;Île-de-France;11
17400002;17400;Rue de la Sacristinerie;Saint-Jean-d'Angély;45.944; -0.505;2025-01-31T09:05:54+00:00;1.779;;;2025-01-29T09:08:42+00:00;1.729;2025-01-29T09:08:43+00:00;1.819;;;2019-08-23T11:56:28+00:00;definitive;Gazole,SP95,GPLc,E10,SP98;E85;;E85;Oui;Boutique alimentaire,Boutique non alimentaire,Restauration à emporter,Restauration sur place,Bar,Vente de fioul domestique,Station de gonflage,Carburant additivé,Location de véhicule,Piste poids lourds,Lavage automatique,Lavage manuel,Espace bébé,Services réparation / entretien,Vente de gaz domestique (Butane, Propane),Bornes électriques,Vente d'additifs carburants,Wifi,Automate CB 24/24,DAB (Distributeur automatique de billets);Charente-Maritime;17;Nouvelle-Aquitaine;75
35130001;35130;30 route de NANTES;La Guerche-de-Bretagne;47.935; -1.232;;;2025-01-16T09:26:35+00:00;0.729;2025-01-28T09:25:55+00:00;1.719;2025-01-28T09:25:55+00:00;1.819;2017-09-01T12:01:07+00:00;definitive;;;Gazole,E85,E10,SP98;SP95,GPLc;;"SP95;GPLc";Oui;Relais colis,Boutique alimentaire,Restauration à emporter,Vente de pétrole lampant,Station de gonflage,Location de véhicule,Piste poids lourds,Lavage automatique,Lavage manuel,Vente de gaz domestique (Butane, Propane),Automate CB 24/24,DAB (Distributeur automatique de billets);Ille-et-Vilaine;35;Bretagne;53
22100007;22100;Rue Charles de Gaulle;Lanvallay;48.453; -2.02;2025-01-31T11:12:03+00:00;1.749;;;;;2025-01-31T11:12:04+00:00;1.789;;;2019-12-03T09:42:01+00:00;definitive;Gazole,SP95,SP98;E85,GPLc,E10;;"E85;GPLc;E10";Oui;Toilettes publiques,Relais colis,Vente de pétrole lampant,Station de gonflage,Location de véhicule,Piste poids lourds,Lavage manuel,Vente de gaz domestique (Butane, Propane),Wifi,Automate CB 24/24,DAB (Distributeur automatique de billets);Côtes-d'Armor;22;Bretagne;53
83790001;83790;Lieu dit le Fege- RN97;Pignans;43.302; 6.236;2025-01-31T14:40:44+00:00;1.799;;;2025-01-31T14:40:44+00:00;1.765;;;;;2019-02-15T09:09:18+00:00;definitive;Gazole,SP95,E10;E85,GPLc,SP98;;"E85;GPLc;SP98";Oui;Relais colis,Boutique alimentaire,Restauration à emporter,Vente de pétrole lampant,Location de véhicule,Vente de gaz domestique (Butane, Propane),Automate CB 24/24,DAB (Distributeur automatique de billets);Var;83;Provence-Alpes-Côte d'Azur;93
13270004;13270;DEVIATION RN 568 OUEST;Fos-sur-Mer;43.441; 4.94;;;;;2025-02-01T06:50:00+00:00;1.719;2025-02-01T06:50:00+00:00;1.823;;;;;Gazole,E10,SP98;SP95,E85,GPLc;;;Non;;Bouches-du-Rhône;13;Provence-Alpes-Côte d'Azur;93
91000007;91000;BOULEVARD DES COQUIBUS;Évry-Courcouronnes;48.624; 2.441;;;;;2025-02-01T00:01:00+00:00;1.761;2025-02-01T00:01:00+00:00;1.864;2020-08-31T15:22:56+00:00;definitive;2020-08-31T15:22:56+00:00;definitive;Gazole,E10,SP98;SP95,E85,GPLc;GPLc;"SP95;E85";Oui;Relais colis,Boutique alimentaire,Station de gonflage,Lavage automatique,Lavage manuel,Vente de gaz domestique (Butane, Propane),Wifi,Automate CB 24/24;Essonne;91;Île-de-France;11
59610003;59610;11 Rue Fernand Pécheux;Fourmies;50.01554; 4.05695;;;;;;;;;;;;;;;;;Non;Vente de gaz domestique (Butane, Propane);Nord;59;Hauts-de-France;32
15800005;15800;12 AVENUE MAX MABIT FOURNIER;Vic-sur-Cère;44.977675282279; 2.6233127421777005;2023-08-16T17:13:08+00:00;1.99;;;;;2023-08-16T17:13:09+00:00;1.99;;;2022-10-05T09:50:21+00:00;definitive;Gazole,SP95,SP98;E85,GPLc,E10;;"E85;GPLc;E10";Non;Vente de fioul domestique,Location de véhicule,Lavage manuel,Vente d'additifs carburants;Cantal;15;Auvergne-Rhône-Alpes;84
91370001;91370;BD DU MARECHAL JUIN;Verrières-le-Buisson;48.753; 2.273;;;2025-01-31T06:41:00+00:00;0.829;2025-01-31T06:41:00+00:00;1.795;2025-01-31T06:41:00+00:00;1.905;;;;;Gazole,E85,E10,SP98;SP95,GPLc;;;Non;;Essonne;91;Île-de-France;11
35400006;35400;rue de la Flaudais;Saint-Malo;48.625; -1.994;2025-02-01T03:58:41+00:00;1.756;;;2025-01-25T07:22:36+00:00;1.71;2025-02-01T03:58:41+00:00;1.8;;;;;Gazole,SP95,GPLc,E10,SP98;E85;;;Non;Toilettes publiques,Boutique alimentaire,Boutique non alimentaire,Restauration à emporter,Restauration sur place,Bar,Station de gonflage,Carburant additivé,Location de véhicule,Vente de gaz domestique (Butane, Propane),DAB (Distributeur automatique de billets);Ille-et-Vilaine;35;Bretagne;53
36700001;36700;ROUTE DE TOURS;Châtillon-sur-Indre;46.991; 1.167;;;;;2024-10-07T07:31:09+00:00;1.776;2024-10-07T07:31:09+00:00;1.886;2017-09-26T07:56:08+00:00;temporaire;;;Gazole,E10,SP98;SP95,E85,GPLc;SP95;;Oui;Boutique alimentaire,Boutique non alimentaire,Station de gonflage,Carburant additivé,Piste poids lourds,Services réparation / entretien,Vente de gaz domestique (Butane, Propane),Vente d'additifs carburants,Automate CB 24/24;Indre;36;Centre-Val de Loire;24
9210001;9210;La Sinsole;Lézat-sur-Lèze;43.281; 1.348;;;2025-02-01T20:00:00+00:00;0.767;2025-02-01T20:00:00+00:00;1.789;2025-02-01T20:00:00+00:00;1.879;2023-09-23T08:26:38+00:00;definitive;;;Gazole,E85,E10,SP98;SP95,GPLc;;"SP95;GPLc";Non;Station de gonflage,Piste poids lourds,Lavage automatique,Lavage manuel;Ariège;9;Occitanie;76
15200004;15200;Avenue de la Gare;Mauriac;45.222; 2.34;;;;;2025-01-22T12:39:27+00:00;1.776;2025-01-22T12:39:27+00:00;1.863;2024-05-16T10:22:04+00:00;definitive;2018-11-27T10:27:03+00:00;definitive;Gazole,E10,SP98;SP95,E85,GPLc;;"SP95;E85;GPLc";Oui;Toilettes publiques,Laverie,Boutique alimentaire,Restauration à emporter,Restauration sur place,Vente de pétrole lampant,Station de gonflage,Piste poids lourds,Vente de gaz domestique (Butane, Propane),Wifi,Automate CB 24/24,DAB (Distributeur automatique de billets);Cantal;15;Auvergne-Rhône-Alpes;84
94380002;94380;ROUTE DE LA POMPADOUR;Bonneuil-sur-Marne;48.765; 2.478;;;;;2025-02-01T06:51:00+00:00;1.788;2025-02-01T06:51:00+00:00;1.883;;;;;Gazole,E10,SP98;SP95,E85,GPLc;;;Non;;Val-de-Marne;94;Île-de-France;11
56430002;56430;ROUTE DE DINAN;Mauron;48.07774; -2.27185;;;;;2025-01-31T08:21:58+00:00;1.799;2025-01-31T08:21:58+00:00;1.909;2017-08-31T06:29:45+00:00;definitive;2017-08-31T06:29:46+00:00;definitive;Gazole,E10,SP98;SP95,E85,GPLc;;"SP95;E85;GPLc";Non;Boutique alimentaire,Boutique non alimentaire,Station de gonflage,Carburant additivé,Piste poids lourds,Services réparation / entretien;Morbihan;56;Bretagne;53
72380001;72380;zone artisanale Prairie des Moulins;Sainte-Jamme-sur-Sarthe;48.145; 0.17;2025-01-31T07:53:26+00:00;1.759;;;2025-01-31T07:53:26+00:00;1.709;2025-01-31T07:53:26+00:00;1.809;;;2020-08-04T18:57:59+00:00;definitive;Gazole,SP95,E10,SP98;E85,GPLc;;"E85;GPLc";Oui;Toilettes publiques,Laverie,Relais colis,Boutique alimentaire,Boutique non alimentaire,Restauration à emporter,Restauration sur place,Station de gonflage,Location de véhicule,Lavage automatique,Lavage manuel,Vente de gaz domestique (Butane, Propane),Automate CB 24/24,DAB (Distributeur automatique de billets);Sarthe;72;Pays de la Loire;52
69500009;69500;BD LAURENT BONNEVAY;Bron;45.739; 4.905;;;2025-02-01T00:01:00+00:00;0.789;2025-02-01T00:01:00+00:00;1.775;2025-02-01T00:01:00+00:00;1.882;2023-01-30T13:28:42+00:00;definitive;;;Gazole,E85,GPLc,E10,SP98;SP95;;SP95;Oui;Toilettes publiques,Boutique alimentaire,Boutique non alimentaire,Restauration à emporter,Restauration sur place,Station de gonflage,Carburant additivé,Piste poids lourds,Lavage automatique,Vente de gaz domestique (Butane, Propane),Vente d'additifs carburants,Wifi,Automate CB 24/24;Rhône;69;Auvergne-Rhône-Alpes;84
21150002;21150;Avenue de Dijon;Venarey-les-Laumes;47.54; 4.461;2025-01-28T07:48:42+00:00;1.829;;;;;2025-01-28T07:48:42+00:00;1.899;;;;;Gazole,SP95,SP98;E85,GPLc,E10;;E10;Oui;Toilettes publiques,Laverie,Vente de gaz domestique (Butane, Propane),Automate CB 24/24;Côte-d'Or;21;Bourgogne-Franche-Comté;27
44120005;44120;BOULEVARD DE L'EUROPE;Vertou;47.173; -1.474;;;2025-02-01T00:01:00+00:00;0.749;2025-02-01T00:01:00+00:00;1.709;2025-02-01T00:01:00+00:00;1.814;2018-12-18T10:11:48+00:00;definitive;;;Gazole,E85,GPLc,E10,SP98;SP95;;SP95;Oui;Boutique alimentaire,Boutique non alimentaire,Station de gonflage,Carburant additivé,Piste poids lourds,Lavage automatique,Services réparation / entretien,Vente de gaz domestique (Butane, Propane),Vente d'additifs carburants,Wifi,Automate CB 24/24;Loire-Atlantique;44;Pays de la Loire;52
8200005;8200;14 Avenue Pasteur;Sedan;49.699; 4.928;;;2025-02-01T01:17:00+00:00;0.759;2025-02-01T01:17:00+00:00;1.713;2025-02-01T01:17:00+00:00;1.823;2017-09-15T14:10:54+00:00;definitive;;;Gazole,E85,GPLc,E10,SP98;SP95;;SP95;Oui;Toilettes publiques,Boutique alimentaire,Boutique non alimentaire,Vente de fioul domestique,Location de véhicule,Piste poids lourds,Vente de gaz domestique (Butane, Propane),Vente d'additifs carburants,Automate CB 24/24,DAB (Distributeur automatique de billets);Ardennes;8;Grand Est;44
62380001;62380;57 Avenue Bernard Chochoy;Lumbres;50.70998; 2.12748;;;2025-01-31T08:19:17+00:00;0.774;2025-01-31T08:19:18+00:00;1.809;2025-01-31T08:19:18+00:00;1.919;2022-10-17T08:55:49+00:00;definitive;;;Gazole,E85,E10,SP98;SP95,GPLc;;"SP95;GPLc";Non;Toilettes publiques,Boutique non alimentaire,Station de gonflage,Carburant additivé,Piste poids lourds;Pas-de-Calais;62;Hauts-de-France;32
42660001;42660;28 RUE DU FOREZ;Saint-Genest-Malifaux;45.342869278199004; 4.4207864105866;2025-01-20T19:08:56+00:00;1.92;;;;;2025-01-20T19:08:56+00:00;1.96;;;2020-03-09T10:18:46+00:00;definitive;Gazole,SP95,SP98;E85,GPLc,E10;;"E85;GPLc;E10";Oui;Services réparation / entretien,Automate CB 24/24;Loire;42;Auvergne-Rhône-Alpes;84
70300012;70300;AVENUE MARECHAL TURENNE;Luxeuil-les-Bains;47.817; 6.381;;;2024-12-24T09:09:52+00:00;0.76;2025-01-25T06:52:18+00:00;1.691;2025-01-25T06:52:18+00:00;1.777;2023-10-17T17:06:40+00:00;definitive;;;Gazole,E85,E10,SP98;SP95,GPLc;;"SP95;GPLc";Oui;Toilettes publiques,Laverie,Relais colis,Station de gonflage,Piste poids lourds,Lavage automatique,Bornes électriques,Automate CB 24/24,DAB (Distributeur automatique de billets);Haute-Saône;70;Bourgogne-Franche-Comté;27
82000007;82000;395 AVENUE DE BORDEAUX;Montauban;44.025; 1.331;2025-01-31T11:10:22+00:00;1.879;;;2025-01-31T11:10:23+00:00;1.839;;;;;;;Gazole,SP95,E10;E85,GPLc,SP98;;;Oui;Carburant additivé,Automate CB 24/24;Tarn-et-Garonne;82;Occitanie;76
83630002;83630;Route de Sillans;Aups;43.617; 6.22;2025-02-01T09:52:02+00:00;1.789;2025-02-01T09:52:02+00:00;0.758;;;2025-02-01T09:52:03+00:00;1.889;;;;;Gazole,SP95,E85,SP98;GPLc,E10;;"GPLc;E10";Non;Boutique alimentaire,Vente de pétrole lampant,Station de gonflage,Aire de camping-cars,Location de véhicule,Piste poids lourds,Lavage automatique,Lavage manuel,Vente de gaz domestique (Butane, Propane),DAB (Distributeur automatique de billets);Var;83;Provence-Alpes-Côte d'Azur;93
82210005;82210;13 avenue de notre dame;Saint-Nicolas-de-la-Grave;44.064539599999996; 1.0239215776700998;;;;;2025-01-14T19:11:11+00:00;1.85;2025-01-14T19:11:12+00:00;1.96;2023-06-25T08:31:06+00:00;definitive;2023-06-25T08:31:06+00:00;definitive;Gazole,E10,SP98;SP95,E85,GPLc;;"SP95;E85;GPLc";Oui;Boutique non alimentaire,Vente de fioul domestique,Station de gonflage,Carburant additivé,Piste poids lourds,Services réparation / entretien,Vente de gaz domestique (Butane, Propane),Automate CB 24/24;Tarn-et-Garonne;82;Occitanie;76
33502001;33500;209 avenue Clément Fayat;Libourne;44.897694799704006; -0.20877749496702;;;;;2025-01-31T07:31:26+00:00;1.829;2025-01-31T07:31:26+00:00;1.939;2023-04-25T07:55:10+00:00;definitive;2017-12-05T14:30:50+00:00;definitive;Gazole,E10,SP98;SP95,E85,GPLc;;"SP95;E85;GPLc";Oui;Carburant additivé,Piste poids lourds,Automate CB 24/24,DAB (Distributeur automatique de billets);Gironde;33;Nouvelle-Aquitaine;75
78150007;78150;52 bld st antoine;Versailles;48.81865; 2.11953;2025-01-20T14:46:36+00:00;1.819;;;2025-01-20T14:46:36+00:00;1.789;;;;;2017-11-17T14:45:47+00:00;definitive;Gazole,SP95,E10;E85,GPLc,SP98;;"E85;GPLc;SP98";Non;Boutique non alimentaire,DAB (Distributeur automatique de billets);Yvelines;78;Île-de-France;11
86100001;86100;Avenue Jean Moulin;Châtellerault;46.797; 0.531;;;;;2025-01-31T09:00:00+00:00;1.709;2025-01-31T09:00:00+00:00;1.809;2020-08-13T13:18:20+00:00;definitive;2018-12-19T09:25:35+00:00;definitive;Gazole,GPLc,E10,SP98;SP95,E85;;"SP95;E85";Oui;Station de gonflage,Carburant additivé,Vente de gaz domestique (Butane, Propane),Automate CB 24/24,DAB (Distributeur automatique de billets);Vienne;86;Nouvelle-Aquitaine;75
73700005;73700;Lieu-dit Le Mollard;Bourg-Saint-Maurice;45.624; 6.78;;;;;2025-01-24T08:35:45+00:00;1.789;2025-01-20T09:02:08+00:00;1.899;2018-06-29T06:52:38+00:00;definitive;2017-09-26T16:43:31+00:00;definitive;Gazole,E10,SP98;SP95,E85,GPLc;;"SP95;E85;GPLc";Oui;Toilettes publiques,Laverie,Boutique alimentaire,Boutique non alimentaire,Restauration à emporter,Restauration sur place,Bar,Vente de pétrole lampant,Carburant additivé,Piste poids lourds,Lavage automatique,Espace bébé,Vente de gaz domestique (Butane, Propane),Wifi,Automate CB 24/24,DAB (Distributeur automatique de billets);Savoie;73;Auvergne-Rhône-Alpes;84
19316001;19100;14,rue louis taurisson;Brive-la-Gaillarde;45.145; 1.483;2025-01-31T07:57:00+00:00;1.817;;;;;2025-01-17T00:37:00+00:00;1.898;;;;;Gazole,SP95,SP98;E85,GPLc,E10;;GPLc;Oui;Vente de gaz domestique (Butane, Propane),Automate CB 24/24,DAB (Distributeur automatique de billets);Corrèze;19;Nouvelle-Aquitaine;75
54120004;54120;Route de Lachapelle;Deneuvre;48.442; 6.737;;;;;2025-01-07T07:00:31+00:00;1.739;2025-01-07T07:00:31+00:00;1.799;2018-12-13T10:24:05+00:00;definitive;2019-12-10T08:30:18+00:00;temporaire;Gazole,E10,SP98;SP95,E85,GPLc;E85;"SP95;GPLc";Oui;Toilettes publiques,Laverie,Boutique alimentaire,Restauration à emporter,Station de gonflage,Location de véhicule,Piste poids lourds,Vente de gaz domestique (Butane, Propane),Automate CB 24/24;Meurthe-et-Moselle;54;Grand Est;44
35200008;35200;7 boulevard de l'yser;Rennes;48.092; -1.68;;;;;2025-01-31T09:11:10+00:00;1.698;2025-01-31T09:11:17+00:00;1.799;2019-12-02T13:06:23+00:00;temporaire;2019-12-02T13:06:23+00:00;temporaire;Gazole,E10,SP98;SP95,E85,GPLc;"SP95;E85";GPLc;Non;Station de gonflage,Location de véhicule,Vente de gaz domestique (Butane, Propane),DAB (Distributeur automatique de billets);Ille-et-Vilaine;35;Bretagne;53
91290007;91180;25 ROUTE D'ORLEANS RN 20;Saint-Germain-lès-Arpajon;48.603; 2.247;;;;;2025-02-01T00:01:00+00:00;1.765;2025-02-01T00:01:00+00:00;1.875;2022-11-15T17:48:31+00:00;temporaire;;;Gazole,E10,SP98;SP95,E85,GPLc;SP95;;Oui;Toilettes publiques,Boutique alimentaire,Boutique non alimentaire,Restauration à emporter,Vente de fioul domestique,Station de gonflage,Carburant additivé,Piste poids lourds,Vente de gaz domestique (Butane, Propane),Vente d'additifs carburants,Wifi,Automate CB 24/24;Essonne;91;Île-de-France;11
38080003;38080;25 Rue des Sayes;L'Isle-d'Abeau;45.61432; 5.2251;2025-01-31T22:47:00+00:00;1.805;2025-01-31T22:47:00+00:00;0.699;2025-01-31T22:47:00+00:00;1.748;2025-01-31T22:47:00+00:00;1.854;;;;;Gazole,SP95,E85,GPLc,E10,SP98;;;;Non;Relais colis,Station de gonflage,Location de véhicule,Piste poids lourds,Vente de gaz domestique (Butane, Propane),DAB (Distributeur automatique de billets);Isère;38;Auvergne-Rhône-Alpes;84
28500011;28500;1 LE COTEAU;Tréon;48.677003; 1.331272;;;2025-01-30T10:30:33+00:00;0.758;2025-01-30T10:30:34+00:00;1.729;2025-01-30T10:30:34+00:00;1.79;2025-01-30T10:30:33+00:00;definitive;;;Gazole,E85,E10,SP98;SP95,GPLc;;"SP95;GPLc";Non;Vente de gaz domestique (Butane, Propane);Eure-et-Loir;28;Centre-Val de Loire;24
6510003;6510;345 AV DE LA TOURRE;Gattières;43.764; 7.2;;;;;2025-01-15T08:51:50+00:00;1.785;2025-01-15T08:51:50+00:00;1.879;2021-02-23T10:04:52+00:00;definitive;2021-02-23T10:04:52+00:00;definitive;Gazole,E10,SP98;SP95,E85,GPLc;;"SP95;E85;GPLc";Non;Boutique alimentaire,Piste poids lourds,Vente de gaz domestique (Butane, Propane),DAB (Distributeur automatique de billets);Alpes-Maritimes;6;Provence-Alpes-Côte d'Azur;93
71850001;71850;Rue de la Chapelle;Charnay-lès-Mâcon;46.30944; 4.81183;2025-01-31T09:00:08+00:00;1.809;;;2025-02-01T10:00:05+00:00;1.759;;;;;;;Gazole,SP95,E10;E85,GPLc,SP98;;;Non;Toilettes publiques,Boutique alimentaire,Boutique non alimentaire,Restauration à emporter,Station de gonflage,Lavage automatique,Lavage manuel,Vente de gaz domestique (Butane, Propane),DAB (Distributeur automatique de billets);Saône-et-Loire;71;Bourgogne-Franche-Comté;27
84200010;84200;1050 Chemin du Castellas Route de Mazan;Carpentras;44.059915395230995; 5.0704285376765;;;;;2025-01-31T09:13:00+00:00;1.729;2025-01-28T09:39:44+00:00;1.839;2018-11-30T10:16:16+00:00;definitive;2018-04-14T12:23:27+00:00;definitive;Gazole,E10,SP98;SP95,E85,GPLc;;"SP95;E85;GPLc";Non;Station de gonflage,Carburant additivé,DAB (Distributeur automatique de billets);Vaucluse;84;Provence-Alpes-Côte d'Azur;93
78420004;78420;104 RTE DE CHATOU;Carrières-sur-Seine;48.904; 2.167;;;;;2025-01-29T12:31:36+00:00;1.909;2025-01-29T12:31:36+00:00;2.059;;;;;Gazole,E10,SP98;SP95,E85,GPLc;;;Non;Toilettes publiques,Boutique alimentaire,Boutique non alimentaire,Station de gonflage,Carburant additivé,Services réparation / entretien,Vente de gaz domestique (Butane, Propane);Yvelines;78;Île-de-France;11
76250004;76250;570 route de Dieppe;Déville-lès-Rouen;49.47837; 1.047361;;;2025-01-30T23:50:00+00:00;0.769;2025-01-30T23:50:00+00:00;1.769;2025-01-30T23:50:00+00:00;1.849;;;;;Gazole,E85,E10,SP98;SP95,GPLc;;;Oui;Automate CB 24/24;Seine-Maritime;76;Normandie;28
18500006;18500;A71 AIRE DE BOURGES MARMAGNE;Marmagne;47.095; 2.243;;;;;2025-02-01T08:00:00+00:00;2.049;2025-02-01T08:00:00+00:00;2.149;2017-09-16T08:43:08+00:00;definitive;;;Gazole,GPLc,E10,SP98;SP95,E85;;SP95;Non;Toilettes publiques,Douches,Boutique alimentaire,Boutique non alimentaire,Restauration à emporter,Restauration sur place,Bar,Station de gonflage,Carburant additivé,Aire de camping-cars,Piste poids lourds,Espace bébé,Bornes électriques,Wifi;Cher;18;Centre-Val de Loire;24
77690001;77690;22 RUE DU POIRIER DE FROMIE;Montigny-sur-Loing;48.336; 2.732;2025-01-20T14:54:53+00:00;1.815;2025-01-20T14:54:53+00:00;0.799;2025-01-20T14:54:53+00:00;1.782;2025-01-20T14:54:54+00:00;1.873;;;;;Gazole,SP95,E85,E10,SP98;GPLc;;GPLc;Oui;Boutique non alimentaire,Station de gonflage,Lavage automatique,Lavage manuel,Services réparation / entretien,Vente de gaz domestique (Butane, Propane),Vente d'additifs carburants,Automate CB 24/24;Seine-et-Marne;77;Île-de-France;11
62230001;62230;Boulevard Raymond Splingard;Saint-Étienne-au-Mont;50.651; 1.609;2025-01-24T08:01:55+00:00;1.782;;;;;2025-01-24T08:01:56+00:00;1.828;;;2020-08-27T16:20:09+00:00;definitive;Gazole,SP95,SP98;E85,GPLc,E10;;"E85;GPLc;E10";Non;Vente de gaz domestique (Butane, Propane),DAB (Distributeur automatique de billets);Pas-de-Calais;62;Hauts-de-France;32
32600001;32600;3 rue Jean Moulin;L'Isle-Jourdain;43.614; 1.089;2025-02-01T20:00:00+00:00;1.829;;;2025-02-01T20:00:00+00:00;1.769;2025-02-01T20:00:00+00:00;1.869;;;2017-09-02T18:38:34+00:00;definitive;Gazole,SP95,E10,SP98;E85,GPLc;;"E85;GPLc";Oui;Toilettes publiques,Laverie,Relais colis,Boutique alimentaire,Boutique non alimentaire,Station de gonflage,Location de véhicule,Piste poids lourds,Lavage automatique,Lavage manuel,Bornes électriques,Wifi,Automate CB 24/24;Gers;32;Occitanie;76
89290001;89290;CENTRE ARTISANAL;Champs-sur-Yonne;47.74; 3.599;2025-01-18T00:00:00+00:00;1.869;;;;;2025-01-18T00:00:00+00:00;1.939;;;;;Gazole,SP95,SP98;E85,GPLc,E10;;;Oui;Automate CB 24/24;Yonne;89;Bourgogne-Franche-Comté;27
60350003;60350;ROUTE DE SOISSONS- RN 31;Cuise-la-Motte;49.404; 3.008;;;;;2025-02-01T00:01:00+00:00;1.734;2025-02-01T00:01:00+00:00;1.835;2024-01-25T06:43:16+00:00;definitive;2020-10-02T18:13:16+00:00;definitive;Gazole,E10,SP98;SP95,E85,GPLc;;"SP95;E85;GPLc";Oui;Boutique alimentaire,Station de gonflage,Carburant additivé,Piste poids lourds,Vente de gaz domestique (Butane, Propane),Automate CB 24/24,DAB (Distributeur automatique de billets);Oise;60;Hauts-de-France;32
18000002;18000;CHAUSSE DE CHAPPE;Bourges;47.093; 2.428;2025-02-01T08:48:42+00:00;1.82;;;2025-02-01T08:48:42+00:00;1.737;2025-02-01T08:48:42+00:00;1.835;;;2017-08-30T09:04:19+00:00;definitive;Gazole,SP95,E10,SP98;E85,GPLc;;"E85;GPLc";Non;Toilettes publiques,Relais colis,Boutique alimentaire,Boutique non alimentaire,Restauration à emporter,Restauration sur place,Bar,Carburant additivé,Location de véhicule,Espace bébé,Vente de gaz domestique (Butane, Propane),DAB (Distributeur automatique de billets);Cher;18;Centre-Val de Loire;24
44850002;44850;2 Rue Beau Soleil;Saint-Mars-du-Désert;47.361; -1.408;2025-01-27T09:07:41+00:00;1.769;;;;;2025-01-27T09:07:41+00:00;1.809;;;2017-09-26T16:33:48+00:00;definitive;Gazole,SP95,SP98;E85,GPLc,E10;;"E85;GPLc;E10";Oui;Laverie,Location de véhicule,Lavage automatique,Lavage manuel,Vente de gaz domestique (Butane, Propane),Wifi,Automate CB 24/24,DAB (Distributeur automatique de billets);Loire-Atlantique;44;Pays de la Loire;52
51390002;51390;Aire de Gueux A4;Vrigny;49.244642982916005; 3.9234151280944003;;;;;2025-01-31T21:00:00+00:00;2.049;2025-01-31T21:00:00+00:00;2.149;;;;;Gazole,GPLc,E10,SP98;SP95,E85;;;Non;Toilettes publiques,Douches,Boutique alimentaire,Boutique non alimentaire,Restauration à emporter,Restauration sur place,Bar,Station de gonflage,Carburant additivé,Espace bébé,DAB (Distributeur automatique de billets);Marne;51;Grand Est;44
92160003;92160;18 Rue Jean Moulin;Antony;48.753; 2.308;;;2025-01-31T06:41:00+00:00;0.829;2025-01-31T06:41:00+00:00;1.786;2025-01-31T06:41:00+00:00;1.896;;;;;Gazole,E85,E10,SP98;SP95,GPLc;;;Non;;Hauts-de-Seine;92;Île-de-France;11
79208001;79200;58 RUE LEONARD DE VINCI;Parthenay;46.649; -0.223;2025-01-31T08:00:23+00:00;1.759;2024-12-22T18:30:00+00:00;0.779;2025-01-31T08:00:23+00:00;1.699;;;;;;;Gazole,SP95,E85,E10;GPLc,SP98;;"GPLc;SP98";Oui;Boutique alimentaire,Boutique non alimentaire,Automate CB 24/24,DAB (Distributeur automatique de billets);Deux-Sèvres;79;Nouvelle-Aquitaine;75
21110005;21110;Rue de la Gare;Genlis;47.245; 5.22;2025-01-23T10:50:19+00:00;1.85;;;;;2025-01-23T10:50:20+00:00;1.93;;;2017-10-25T17:45:49+00:00;definitive;Gazole,SP95,SP98;E85,GPLc,E10;;"E85;GPLc;E10";Oui;Station de gonflage,Lavage manuel,Vente de gaz domestique (Butane, Propane),Automate CB 24/24,DAB (Distributeur automatique de billets);Côte-d'Or;21;Bourgogne-Franche-Comté;27
77250004;77250;11 Rue de l'Orvanne;Moret-Loing-et-Orvanne;48.369354347807004; 2.8275599738244;;;;;2025-01-29T10:23:46+00:00;1.739;2025-01-29T10:23:46+00:00;1.839;2021-08-12T10:31:54+00:00;definitive;2017-08-30T09:08:13+00:00;definitive;Gazole,E10,SP98;SP95,E85,GPLc;;"SP95;E85;GPLc";Non;Vente de gaz domestique (Butane, Propane),DAB (Distributeur automatique de billets);Seine-et-Marne;77;Île-de-France;11
49450001;49450;ZC LES ALOUETTES;Sèvremoine;47.114305886000004; -0.991832348626;;;2024-10-18T09:24:29+00:00;0.768;2025-01-29T09:50:02+00:00;1.698;2025-01-29T09:50:02+00:00;1.819;2022-02-23T09:53:09+00:00;definitive;;;Gazole,E85,E10,SP98;SP95,GPLc;;"SP95;GPLc";Non;;Maine-et-Loire;49;Pays de la Loire;52
72300010;72300;2 AVENUE DU POIRIER ROUGE;La Chapelle-d'Aligné;47.731906524016; -0.23805428567193002;2025-01-20T07:53:43+00:00;1.779;;;;;;;;;2022-06-08T12:15:53+00:00;definitive;Gazole,SP95;E85,GPLc,E10,SP98;;"E85;GPLc;E10;SP98";Oui;Automate CB 24/24;Sarthe;72;Pays de la Loire;52
80200007;80200;AVENUE DE L EUROPE;Péronne;49.939; 2.926;;;2024-09-09T08:35:38+00:00;0.758;2025-01-29T08:30:00+00:00;1.719;2025-01-24T08:30:00+00:00;1.822;2022-12-27T08:09:21+00:00;temporaire;;;Gazole,E85,GPLc,E10,SP98;SP95;SP95;;Non;Vente de gaz domestique (Butane, Propane),DAB (Distributeur automatique de billets);Somme;80;Hauts-de-France;32
74140006;74140;LES BLOSSONNIERS ROUTE DES VOIRONS;Veigy-Foncenex;46.2702266; 6.2570071;2025-01-29T00:01:00+00:00;1.88;;;;;2025-01-29T00:01:00+00:00;1.93;;;2022-06-07T14:57:16+00:00;definitive;Gazole,SP95,SP98;E85,GPLc,E10;;"E85;GPLc;E10";Oui;Automate CB 24/24;Haute-Savoie;74;Auvergne-Rhône-Alpes;84
51800010;51800;Rue du Mont l'Hermitte - CC Les Vertes Voyes;Sainte-Menehould;49.095158877001005; 4.9163143583495;;;;;;;;;2020-12-15T16:38:51+00:00;definitive;2017-09-26T14:28:03+00:00;definitive;;;"Gazole;E10;SP98";;Non;;Marne;51;Grand Est;44
47260001;47260;120 route de st Etienne de fougères;Castelmoron-sur-Lot;44.401680720411; 0.49923260869999997;;;2025-01-31T09:55:40+00:00;0.693;2025-01-31T09:55:40+00:00;1.701;2025-01-31T09:55:40+00:00;1.795;2023-08-09T06:59:03+00:00;definitive;;;Gazole,E85,E10,SP98;SP95,GPLc;;"SP95;GPLc";Oui;Laverie,Relais colis,Station de gonflage,Location de véhicule,Piste poids lourds,Lavage automatique,Lavage manuel,Vente de gaz domestique (Butane, Propane),Wifi,Automate CB 24/24;Lot-et-Garonne;47;Nouvelle-Aquitaine;75
72440002;72440;1 Rue Nationale;Bouloire;47.975; 0.546;;;;;2025-01-24T07:56:01+00:00;1.839;2025-01-24T07:56:01+00:00;1.949;;;;;Gazole,E10,SP98;SP95,E85,GPLc;;GPLc;Oui;Toilettes publiques,Boutique alimentaire,Boutique non alimentaire,Station de gonflage,Carburant additivé,Location de véhicule,Piste poids lourds,Lavage manuel,Services réparation / entretien,Vente de gaz domestique (Butane, Propane),Vente d'additifs carburants,Automate CB 24/24;Sarthe;72;Pays de la Loire;52
87310001;87310;Rue de la Borie;Saint-Laurent-sur-Gorre;45.769263932879994; 0.9641147166716499;2025-01-23T16:07:22+00:00;1.789;;;2025-01-23T16:07:23+00:00;1.759;;;;;2019-02-06T09:53:40+00:00;definitive;Gazole,SP95,E10;E85,GPLc,SP98;;"E85;GPLc;SP98";Oui;Automate CB 24/24,DAB (Distributeur automatique de billets);Haute-Vienne;87;Nouvelle-Aquitaine;75
91380009;91380;10 Rue Pierre Brossolette;Chilly-Mazarin;48.699; 2.303;;;;;2025-01-30T11:52:56+00:00;1.859;2025-01-30T11:52:56+00:00;2.009;;;;;Gazole,E10,SP98;SP95,E85,GPLc;;;Non;Boutique alimentaire,Boutique non alimentaire,Station de gonflage,Carburant additivé,Piste poids lourds,Lavage automatique,Services réparation / entretien,Vente de gaz domestique (Butane, Propane);Essonne;91;Île-de-France;11
79600001;79600;11 route de Thouars;Plaine-et-Vallées;46.885; -0.05946;;;;;;;;;2019-12-02T15:28:52+00:00;definitive;2019-12-02T15:28:52+00:00;definitive;;;;;Non;Carburant additivé,Vente de gaz domestique (Butane, Propane);Deux-Sèvres;79;Nouvelle-Aquitaine;75
44830002;44830;Rue de Nantes;Bouaye;47.144; -1.679;2025-01-31T09:28:42+00:00;1.759;;;;;2025-01-31T09:28:43+00:00;1.799;;;2018-06-05T08:38:11+00:00;definitive;Gazole,SP95,SP98;E85,GPLc,E10;;"E85;GPLc;E10";Non;Relais colis,Station de gonflage,Location de véhicule,Piste poids lourds,Lavage automatique,Lavage manuel,Vente de gaz domestique (Butane, Propane),Wifi,DAB (Distributeur automatique de billets);Loire-Atlantique;44;Pays de la Loire;52
51800001;51800;Avenue de la Gare;Sainte-Menehould;49.09; 4.903;;;2024-12-20T09:41:17+00:00;0.749;2025-01-28T09:06:10+00:00;1.739;2025-01-28T09:06:10+00:00;1.839;2018-11-07T06:58:15+00:00;definitive;;;Gazole,E85,E10,SP98;SP95,GPLc;;"SP95;GPLc";Non;Boutique alimentaire,Boutique non alimentaire,Restauration sur place,Location de véhicule,Piste poids lourds,Lavage automatique,Lavage manuel,Vente de gaz domestique (Butane, Propane),DAB (Distributeur automatique de billets);Marne;51;Grand Est;44
22960001;22960;2, RUE DU CHALLONGE;Plédran;48.445538320000004; -2.7512954499999998;;;;;2025-01-28T12:31:59+00:00;1.759;2025-01-28T12:31:59+00:00;1.859;2022-11-09T14:39:36+00:00;definitive;2022-11-09T14:39:36+00:00;definitive;Gazole,E10,SP98;SP95,E85,GPLc;;"SP95;E85;GPLc";Non;Toilettes publiques,Laverie,Relais colis,Boutique alimentaire,Boutique non alimentaire,Restauration à emporter,Restauration sur place,Station de gonflage,Location de véhicule,Lavage manuel,Vente de gaz domestique (Butane, Propane),DAB (Distributeur automatique de billets);Côtes-d'Armor;22;Bretagne;53
49250001;49250;ZAC Actival;Beaufort-en-Anjou;47.441; -0.194;;;;;2025-01-30T10:23:18+00:00;1.709;2025-01-25T11:09:05+00:00;1.819;2024-03-08T12:08:14+00:00;definitive;2022-09-15T09:38:30+00:00;definitive;Gazole,E10,SP98;SP95,E85,GPLc;;"SP95;E85;GPLc";Oui;Restauration à emporter,Restauration sur place,Bar,Station de gonflage,Location de véhicule,Piste poids lourds,Lavage automatique,Lavage manuel,Vente de gaz domestique (Butane, Propane),Automate CB 24/24,DAB (Distributeur automatique de billets);Maine-et-Loire;49;Pays de la Loire;52
43360002;43360;AIRE LAFAYETTE;Lorlanges;45.337784769877; 3.2741893643043;;;;;2024-10-01T09:30:00+00:00;2.01;;;2021-03-29T13:22:01+00:00;definitive;2021-03-29T13:22:01+00:00;definitive;Gazole,GPLc,E10;SP95,E85,SP98;;"SP95;E85;SP98";Oui;Toilettes publiques,Douches,Laverie,Boutique alimentaire,Boutique non alimentaire,Station de gonflage,Carburant additivé,Aire de camping-cars,Piste poids lourds,Espace bébé,GNV,Wifi,Automate CB 24/24;Haute-Loire;43;Auvergne-Rhône-Alpes;84
69400014;69400;RN 6-RTE D'ANSE;Villefranche-sur-Saône;45.979699317316005; 4.717367966048401;;;2025-02-01T00:01:00+00:00;0.839;2025-02-01T00:01:00+00:00;1.769;2025-02-01T00:01:00+00:00;1.87;2021-12-29T11:41:46+00:00;definitive;;;Gazole,E85,E10,SP98;SP95,GPLc;;"SP95;GPLc";Oui;Boutique alimentaire,Boutique non alimentaire,Station de gonflage,Carburant additivé,Lavage automatique,Vente d'additifs carburants,Wifi,Automate CB 24/24,DAB (Distributeur automatique de billets);Rhône;69;Auvergne-Rhône-Alpes;84
73330002;73330;zi Baronnie;Le Pont-de-Beauvoisin;45.52956; 5.68477;2025-01-31T08:32:40+00:00;1.799;;;2025-01-31T08:32:40+00:00;1.739;;;;;2018-07-31T13:13:32+00:00;definitive;Gazole,SP95,E10;E85,GPLc,SP98;;"E85;GPLc;SP98";Non;Vente de gaz domestique (Butane, Propane),DAB (Distributeur automatique de billets);Savoie;73;Auvergne-Rhône-Alpes;84
50240001;50240;ZONE DE BEAUFOUR;Saint-James;48.521; -1.339;2025-01-31T11:42:02+00:00;1.769;;;;;2025-01-31T11:42:02+00:00;1.829;;;;;Gazole,SP95,SP98;E85,GPLc,E10;"GPLc;E10";;Oui;Restauration à emporter,Restauration sur place,Toilettes publiques,Bar,Boutique alimentaire,Station de gonflage,Espace bébé,Boutique non alimentaire,Laverie,Vente de gaz domestique (Butane, Propane),Location de véhicule,Relais colis,Piste poids lourds,DAB (Distributeur automatique de billets),Lavage automatique,Lavage manuel,Vente d'additifs carburants,Wifi,Automate CB 24/24;Manche;50;Normandie;28
85000007;85000;Rue Newton;La Roche-sur-Yon;46.674; -1.405;;;;;2025-02-01T08:48:00+00:00;1.693;2025-02-01T08:48:00+00:00;1.786;2018-06-18T10:28:57+00:00;definitive;2018-03-05T10:21:35+00:00;definitive;Gazole,E10,SP98;SP95,E85,GPLc;;"SP95;E85;GPLc";Oui;Boutique alimentaire,Boutique non alimentaire,Vente de gaz domestique (Butane, Propane),Automate CB 24/24;Vendée;85;Pays de la Loire;52
93260007;93260;238 RUE DE PARIS;Les Lilas;48.88021; 2.41759;;;2025-02-01T00:01:00+00:00;0.823;2025-02-01T00:01:00+00:00;1.791;2025-02-01T00:01:00+00:00;1.901;;;;;Gazole,E85,E10,SP98;SP95,GPLc;;;Non;Boutique alimentaire,Boutique non alimentaire,Station de gonflage,Carburant additivé,Lavage automatique,Vente de gaz domestique (Butane, Propane),DAB (Distributeur automatique de billets);Seine-Saint-Denis;93;Île-de-France;11
76600021;76600;BD.CLEMENCEAU;Le Havre;49.489; 0.098;;;;;;;2025-02-01T00:01:00+00:00;1.929;;;;;Gazole,SP98;SP95,E85,GPLc,E10;;;Oui;Automate CB 24/24;Seine-Maritime;76;Normandie;28
75008009;75008;FACE 55 AV. GEORGES V - PARKG GE;Paris;48.872; 2.301;;;;;2025-01-31T21:00:00+00:00;1.902;2025-01-31T21:00:00+00:00;1.99;2017-09-27T08:16:15+00:00;definitive;2017-09-27T08:16:15+00:00;definitive;Gazole,E10,SP98;SP95,E85,GPLc;;"SP95;E85;GPLc";Non;Boutique alimentaire,Boutique non alimentaire,Station de gonflage,Carburant additivé,Lavage manuel;Paris;75;Île-de-France;11
1960005;1960;50 RUE DES ACACIAS;Servas;46.128; 5.163;;;2025-01-17T12:16:22+00:00;0.758;2025-01-31T19:25:27+00:00;1.735;2025-01-31T19:25:27+00:00;1.845;2018-05-13T13:37:25+00:00;definitive;;;Gazole,E85,E10,SP98;SP95,GPLc;;"SP95;GPLc";Oui;Laverie,Relais colis,Station de gonflage,Piste poids lourds,Lavage automatique,Vente de gaz domestique (Butane, Propane),Bornes électriques,Automate CB 24/24,DAB (Distributeur automatique de billets);Ain;1;Auvergne-Rhône-Alpes;84
64390002;64390;Carrères du Dessus;Sauveterre-de-Béarn;43.401; -0.948;2025-02-01T08:30:00+00:00;1.815;;;2025-02-01T08:30:00+00:00;1.76;;;;;2017-09-02T08:19:35+00:00;definitive;Gazole,SP95,E10;E85,GPLc,SP98;;"E85;GPLc;SP98";Non;Laverie,Station de gonflage,Piste poids lourds,Lavage manuel,DAB (Distributeur automatique de billets);Pyrénées-Atlantiques;64;Nouvelle-Aquitaine;75
1440003;1440;261 Route de Paris;Viriat;46.217; 5.213;2025-01-31T22:15:00+00:00;1.829;;;;;2025-01-31T22:15:00+00:00;1.899;;;2022-10-25T11:42:56+00:00;definitive;Gazole,SP95,SP98;E85,GPLc,E10;;"E85;GPLc;E10";Oui;Toilettes publiques,Relais colis,Boutique alimentaire,Boutique non alimentaire,Restauration à emporter,Vente de fioul domestique,Station de gonflage,Carburant additivé,Piste poids lourds,Vente de gaz domestique (Butane, Propane),Automate CB 24/24;Ain;1;Auvergne-Rhône-Alpes;84
19150002;19150;1 Avenue de Coulaud;Laguenne-sur-Avalouze;45.24621; 1.77323;2025-01-27T10:38:41+00:00;1.799;2025-01-17T09:15:27+00:00;0.759;;;2025-01-23T09:15:20+00:00;1.839;;;;;Gazole,SP95,E85,GPLc,SP98;E10;;E10;Non;Toilettes publiques,Relais colis,Boutique alimentaire,Boutique non alimentaire,Restauration à emporter,Restauration sur place,Bar,Station de gonflage,Vente de gaz domestique (Butane, Propane),DAB (Distributeur automatique de billets);Corrèze;19;Nouvelle-Aquitaine;75
93290006;93290;62-68 ROUTE DES PETITS PONTS;Tremblay-en-France;48.96372; 2.56421;;;2025-02-01T00:01:00+00:00;0.804;2025-02-01T00:01:00+00:00;1.779;2025-02-01T00:01:00+00:00;1.889;2022-11-10T06:59:44+00:00;definitive;;;Gazole,E85,E10,SP98;SP95,GPLc;;"SP95;GPLc";Non;Boutique alimentaire,Station de gonflage,Lavage automatique,Services réparation / entretien,Vente de gaz domestique (Butane, Propane),DAB (Distributeur automatique de billets);Seine-Saint-Denis;93;Île-de-France;11
77130003;77130;RN 105;Forges;48.402; 2.936;;;;;2025-01-31T19:22:05+00:00;1.839;2025-01-31T19:22:05+00:00;1.949;2022-10-08T11:50:20+00:00;definitive;2022-10-08T11:50:21+00:00;definitive;Gazole,E10,SP98;SP95,E85,GPLc;;"SP95;E85;GPLc";Oui;Toilettes publiques,Boutique alimentaire,Station de gonflage,Carburant additivé,Services réparation / entretien,Automate CB 24/24;Seine-et-Marne;77;Île-de-France;11
84290001;84290;80 route de travaillan;Sainte-Cécile-les-Vignes;44.232; 4.883;;;;;2025-01-28T12:03:43+00:00;1.775;2025-01-28T12:03:43+00:00;1.875;2019-01-24T14:31:14+00:00;definitive;2019-01-24T14:31:14+00:00;definitive;Gazole,E10,SP98;SP95,E85,GPLc;;"SP95;E85;GPLc";Oui;Laverie,Relais colis,Boutique alimentaire,Boutique non alimentaire,Restauration à emporter,Vente de fioul domestique,Vente de pétrole lampant,Station de gonflage,Carburant additivé,Aire de camping-cars,Location de véhicule,Piste poids lourds,Lavage automatique,Vente de gaz domestique (Butane, Propane),Bornes électriques,Vente d'additifs carburants,Wifi,Automate CB 24/24,DAB (Distributeur automatique de billets);Vaucluse;84;Provence-Alpes-Côte d'Azur;93
43000006;43000;31 Boulevard Maréchal Joffre;Le Puy-en-Velay;45.049; 3.894;2024-09-11T18:26:13+00:00;1.799;;;;;;;;;2022-10-19T14:48:49+00:00;definitive;Gazole,SP95;E85,GPLc,E10,SP98;;"E85;GPLc;E10;SP98";Oui;Toilettes publiques,Relais colis,Boutique alimentaire,Boutique non alimentaire,Station de gonflage,Carburant additivé,Piste poids lourds,Lavage automatique,Lavage manuel,Services réparation / entretien,Vente de gaz domestique (Butane, Propane),Vente d'additifs carburants,Wifi,Automate CB 24/24;Haute-Loire;43;Auvergne-Rhône-Alpes;84
57620002;57620;1 RUE DE SARREGUEMINES;Lemberg;48.997812058039; 7.3793527493951006;;;;;2025-01-31T17:42:50+00:00;1.729;2025-01-31T17:42:50+00:00;1.819;2023-08-26T13:10:04+00:00;temporaire;2023-08-26T13:10:04+00:00;temporaire;Gazole,E10,SP98;SP95,E85,GPLc;"SP95;E85;GPLc";;Oui;Relais colis,Vente de gaz domestique (Butane, Propane),Automate CB 24/24;Moselle;57;Grand Est;44
87280008;87280;25 Avenue Georges Guingouin;Limoges;45.907; 1.297;;;;;2025-02-01T00:01:00+00:00;1.719;2025-02-01T00:01:00+00:00;1.812;2017-10-17T10:50:02+00:00;definitive;2017-10-17T10:50:03+00:00;definitive;Gazole,E10,SP98;SP95,E85,GPLc;;"SP95;E85;GPLc";Non;Boutique alimentaire,Boutique non alimentaire,Restauration à emporter,Vente de fioul domestique,Station de gonflage,Carburant additivé,Piste poids lourds,Lavage automatique,Vente de gaz domestique (Butane, Propane),DAB (Distributeur automatique de billets);Haute-Vienne;87;Nouvelle-Aquitaine;75
29750001;29750;Rue du Général de Gaulle;Loctudy;47.833; -4.185;2025-01-31T11:40:01+00:00;1.769;;;;;2025-01-15T17:43:56+00:00;1.809;;;;;Gazole,SP95,SP98;E85,GPLc,E10;;E10;Oui;Piste poids lourds,Vente de gaz domestique (Butane, Propane),Automate CB 24/24,DAB (Distributeur automatique de billets);Finistère;29;Bretagne;53
39500007;39500;ROUTE NATIONALE 73;Damparis;47.048889; 5.429444;;;;;;;;;;;;;Gazole;SP95,E85,GPLc,E10,SP98;;;Non;Piste poids lourds,Vente d'additifs carburants;Jura;39;Bourgogne-Franche-Comté;27
74140004;74140;RN5 Route de Thonon;Sciez;46.331158208299996; 6.37275576533;2025-01-17T11:51:19+00:00;1.832;;;;;2025-01-17T11:51:19+00:00;1.898;;;;;Gazole,SP95,SP98;E85,GPLc,E10;;;Non;Toilettes publiques,Station de gonflage,Piste poids lourds,Lavage automatique,Lavage manuel,Vente de gaz domestique (Butane, Propane),DAB (Distributeur automatique de billets);Haute-Savoie;74;Auvergne-Rhône-Alpes;84
69220005;69220;Route Nationale 6;Belleville-en-Beaujolais;46.107; 4.733;;;;;2025-01-17T08:45:49+00:00;1.959;2025-01-17T08:45:49+00:00;2.059;;;;;Gazole,E10,SP98;SP95,E85,GPLc;;;Oui;Services réparation / entretien,Automate CB 24/24,DAB (Distributeur automatique de billets);Rhône;69;Auvergne-Rhône-Alpes;84
95370001;95370;66 Boulevard Victor Bordier;Montigny-lès-Cormeilles;48.993; 2.198;2025-01-31T00:37:00+00:00;1.82;2025-01-31T00:37:00+00:00;0.818;2025-01-31T00:37:00+00:00;1.766;2025-01-31T00:37:00+00:00;1.84;;;;;Gazole,SP95,E85,E10,SP98;GPLc;GPLc;;Oui;Vente de fioul domestique,Station de gonflage,Automate CB 24/24,DAB (Distributeur automatique de billets);Val-d'Oise;95;Île-de-France;11
26140005;26140;Aire de Saint Rambert d'Albon;Saint-Rambert-d'Albon;45.276924902728005; 4.8250322038246;;;;;2025-01-29T09:25:57+00:00;1.944;2025-01-19T08:01:57+00:00;1.984;2017-08-30T09:57:06+00:00;definitive;2017-08-30T09:57:06+00:00;definitive;Gazole,GPLc,E10,SP98;SP95,E85;;"SP95;E85";Non;Toilettes publiques,Douches,Boutique alimentaire,Boutique non alimentaire,Vente de fioul domestique,Station de gonflage,Carburant additivé,Aire de camping-cars,Piste poids lourds,Espace bébé,DAB (Distributeur automatique de billets);Drôme;26;Auvergne-Rhône-Alpes;84
56680001;56680;Rue du 19 Mars 1962;Plouhinec;47.696; -3.245;;;2024-10-04T14:16:22+00:00;0.758;2025-01-31T10:49:05+00:00;1.719;2025-01-23T10:07:20+00:00;1.809;2020-06-09T10:09:59+00:00;definitive;;;Gazole,E85,E10,SP98;SP95,GPLc;;"SP95;GPLc";Oui;Toilettes publiques,Laverie,Station de gonflage,Piste poids lourds,Lavage automatique,Lavage manuel,Vente de gaz domestique (Butane, Propane),Automate CB 24/24;Morbihan;56;Bretagne;53
28300004;28300;Rue Gambetta;Mainvilliers;48.454; 1.465;;;2025-01-30T08:27:05+00:00;0.759;2025-02-01T08:58:59+00:00;1.711;2025-02-01T08:58:59+00:00;1.791;2022-05-12T09:12:22+00:00;definitive;;;Gazole,E85,E10,SP98;SP95,GPLc;;"SP95;GPLc";Oui;Laverie,Relais colis,Station de gonflage,Location de véhicule,Vente de gaz domestique (Butane, Propane),Automate CB 24/24,DAB (Distributeur automatique de billets);Eure-et-Loir;28;Centre-Val de Loire;24
13011023;13011;78 boulevard de la Millière;Marseille;43.283087461219004; 5.4970422889938;;;2024-12-11T06:00:00+00:00;0.87;2025-01-28T06:00:00+00:00;1.799;2025-01-28T06:00:00+00:00;1.869;2023-03-28T14:26:08+00:00;definitive;;;Gazole,E85,E10,SP98;SP95,GPLc;;"SP95;GPLc";Non;Boutique alimentaire,Boutique non alimentaire,Station de gonflage,Piste poids lourds,Vente de gaz domestique (Butane, Propane),Vente d'additifs carburants;Bouches-du-Rhône;13;Provence-Alpes-Côte d'Azur;93
56230005;56230;14 RUE JEAN GRIMAUD;Questembert;47.662; -2.459;2025-01-07T09:51:51+00:00;1.789;;;;;2025-01-07T09:51:51+00:00;1.839;;;2019-06-13T10:32:42+00:00;definitive;Gazole,SP95,SP98;E85,GPLc,E10;;E85;Non;Toilettes publiques,Location de véhicule,Vente de gaz domestique (Butane, Propane),DAB (Distributeur automatique de billets);Morbihan;56;Bretagne;53
33150003;33150;Avenue René Cassagne;Cenon;44.854; -0.517;;;;;2025-01-28T13:26:32+00:00;1.769;2025-01-28T13:26:33+00:00;1.899;;;;;Gazole,E10,SP98;SP95,E85,GPLc;;;Oui;Relais colis,Station de gonflage,Carburant additivé,Piste poids lourds,Automate CB 24/24;Gironde;33;Nouvelle-Aquitaine;75
88000012;88000;30 rue de Remiremont;Épinal;48.158675910203996; 6.45222013895;;;;;2025-01-20T08:01:15+00:00;1.749;;;2024-05-31T11:30:51+00:00;definitive;2024-05-31T11:30:52+00:00;definitive;Gazole,E10;SP95,E85,GPLc,SP98;;"SP95;E85;GPLc;SP98";Oui;Station de gonflage,Automate CB 24/24;Vosges;88;Grand Est;44
74600013;74600;A41 AIRE DE LA RIPAILLE;Annecy;45.877; 6.073;;;2025-02-01T09:00:00+00:00;0.999;2025-02-01T09:00:00+00:00;1.989;2025-02-01T09:00:00+00:00;1.99;;;;;Gazole,E85,GPLc,E10,SP98;SP95;;;Oui;Toilettes publiques,Douches,Boutique alimentaire,Restauration à emporter,Station de gonflage,Carburant additivé,Bornes électriques,Vente d'additifs carburants,Wifi,Automate CB 24/24;Haute-Savoie;74;Auvergne-Rhône-Alpes;84
6500005;6500;45 AV DE ST ROMAN;Menton;43.805; 7.487;2025-01-31T08:38:58+00:00;1.892;2025-01-31T08:38:59+00:00;0.759;2025-01-31T08:38:59+00:00;1.839;2025-01-31T08:38:59+00:00;1.954;;;;;Gazole,SP95,E85,E10,SP98;GPLc;;GPLc;Oui;Restauration à emporter,Restauration sur place,Vente de pétrole lampant,Station de gonflage,Carburant additivé,Piste poids lourds,Lavage automatique,Vente de gaz domestique (Butane, Propane),Bornes électriques,Wifi,Automate CB 24/24;Alpes-Maritimes;6;Provence-Alpes-Côte d'Azur;93
36000010;36000;ALLEE DES MAISONS ROUGES;Le Poinçonnet;46.79952; 1.73367;2025-01-22T19:40:00+00:00;1.779;2024-12-16T15:14:42+00:00;0.819;2025-01-30T19:40:00+00:00;1.736;2025-01-16T19:40:00+00:00;1.829;;;;;Gazole,SP95,E85,E10,SP98;GPLc;;GPLc;Non;Toilettes publiques,Boutique alimentaire,Station de gonflage,Piste poids lourds,Services réparation / entretien,Vente de gaz domestique (Butane, Propane),DAB (Distributeur automatique de billets);Indre;36;Centre-Val de Loire;24
53150001;53150;Rue de la Libération;Montsûrs;48.14066; -0.55581;2025-02-01T08:42:19+00:00;1.779;;;;;2025-01-17T08:58:38+00:00;1.829;;;2017-09-15T10:45:36+00:00;definitive;Gazole,SP95,SP98;E85,GPLc,E10;;E85;Non;;Mayenne;53;Pays de la Loire;52
23300005;23300;Rue François Durand;La Souterraine;46.234; 1.483;2025-01-29T10:30:06+00:00;1.813;;;;;2025-01-27T11:39:11+00:00;1.857;;;2020-12-29T09:19:37+00:00;definitive;Gazole,SP95,SP98;E85,GPLc,E10;;"E85;GPLc;E10";Oui;Relais colis,Boutique alimentaire,Restauration à emporter,Location de véhicule,Vente de gaz domestique (Butane, Propane),Wifi,Automate CB 24/24,DAB (Distributeur automatique de billets);Creuse;23;Nouvelle-Aquitaine;75
69220006;69220;Le Pré de la Cloche;Belleville-en-Beaujolais;46.104; 4.747;;;2024-09-06T18:09:25+00:00;0.758;2025-01-31T12:34:16+00:00;1.769;2025-01-31T12:34:16+00:00;1.859;2018-02-16T09:25:58+00:00;definitive;;;Gazole,E85,GPLc,E10,SP98;SP95;;SP95;Oui;Boutique non alimentaire,Station de gonflage,Carburant additivé,Location de véhicule,Piste poids lourds,Lavage automatique,Services réparation / entretien,Vente de gaz domestique (Butane, Propane),Vente d'additifs carburants,Automate CB 24/24;Rhône;69;Auvergne-Rhône-Alpes;84
14680001;14680;VARENDES;Bretteville-sur-Laize;49.04543; -0.3238;;;2025-01-31T13:45:01+00:00;0.759;2025-01-31T13:45:02+00:00;1.729;2025-01-31T13:45:02+00:00;1.849;2022-07-11T14:01:20+00:00;definitive;;;Gazole,E85,E10,SP98;SP95,GPLc;;"SP95;GPLc";Non;Boutique alimentaire,Vente de gaz domestique (Butane, Propane),DAB (Distributeur automatique de billets);Calvados;14;Normandie;28
85200004;85200;26 bd du Bas Poitou;Fontenay-le-Comte;46.459; -0.788;;;;;2025-01-30T23:59:00+00:00;1.929;2025-01-13T23:59:00+00:00;1.979;2024-03-15T11:27:18+00:00;temporaire;;;Gazole,E10,SP98;SP95,E85,GPLc;SP95;;Non;;Vendée;85;Pays de la Loire;52
22460003;22460;Rue du Parc Mail;Uzel;48.281; -2.839;2025-01-29T10:01:20+00:00;1.869;;;2025-01-29T10:01:21+00:00;1.839;2025-01-29T10:01:21+00:00;1.949;;;2022-10-14T12:05:24+00:00;definitive;Gazole,SP95,E10,SP98;E85,GPLc;;"E85;GPLc";Oui;Boutique alimentaire,Boutique non alimentaire,Vente de gaz domestique (Butane, Propane),Automate CB 24/24,DAB (Distributeur automatique de billets);Côtes-d'Armor;22;Bretagne;53
27600001;27600;26, Avenue Jean Jaurès;Gaillon;49.156; 1.345;;;2025-01-24T09:30:00+00:00;0.747;2025-01-24T09:30:00+00:00;1.729;2025-01-24T09:30:00+00:00;1.819;2017-09-06T12:27:13+00:00;definitive;;;Gazole,E85,E10,SP98;SP95,GPLc;;"SP95;GPLc";Non;Piste poids lourds,Lavage automatique,Vente de gaz domestique (Butane, Propane),DAB (Distributeur automatique de billets);Eure;27;Normandie;28
35135001;35135;Rue Loroux;Chantepie;48.087; -1.622;2025-01-30T09:51:22+00:00;1.755;;;;;;;;;2020-10-09T14:33:09+00:00;definitive;Gazole,SP95;E85,GPLc,E10,SP98;;"E85;GPLc;E10;SP98";Oui;Vente de gaz domestique (Butane, Propane),Automate CB 24/24;Ille-et-Vilaine;35;Bretagne;53
30100007;30100;ZAC du Rieu Rocade Est;Alès;44.117; 4.107;2025-01-31T08:36:27+00:00;1.799;;;2025-01-31T08:36:27+00:00;1.719;2025-01-31T08:36:28+00:00;1.829;;;2021-10-13T12:02:34+00:00;definitive;Gazole,SP95,E10,SP98;E85,GPLc;;"E85;GPLc";Oui;Boutique alimentaire,Boutique non alimentaire,Vente de gaz domestique (Butane, Propane),Automate CB 24/24;Gard;30;Occitanie;76
7400002;7400;ZAC LA ROTONDE;Le Teil;44.559072481244; 4.6902502954602;;;2025-01-16T07:12:07+00:00;0.759;2025-01-28T00:30:00+00:00;1.739;2025-01-28T00:30:00+00:00;1.839;2018-03-02T08:12:44+00:00;definitive;;;Gazole,E85,E10,SP98;SP95,GPLc;;"SP95;GPLc";Non;Station de gonflage,Vente de gaz domestique (Butane, Propane);Ardèche;7;Auvergne-Rhône-Alpes;84
81000009;81000;C.C LES PORTES ALBI/FONLABOUR;Albi;43.918832183849; 2.1073591948000003;;;2025-02-01T08:58:00+00:00;0.758;2025-02-01T08:58:00+00:00;1.789;2025-02-01T08:58:00+00:00;1.842;2021-10-05T04:51:59+00:00;definitive;;;Gazole,E85,GPLc,E10,SP98;SP95;;SP95;Oui;Laverie,Relais colis,Boutique alimentaire,Boutique non alimentaire,Restauration à emporter,Restauration sur place,Vente de pétrole lampant,Station de gonflage,Carburant additivé,Aire de camping-cars,Location de véhicule,Piste poids lourds,Lavage automatique,Lavage manuel,Services réparation / entretien,Vente de gaz domestique (Butane, Propane),Vente d'additifs carburants,Automate CB 24/24,DAB (Distributeur automatique de billets);Tarn;81;Occitanie;76
76740002;76740;HAMEAU DU BUQUET;La Gaillarde;49.832954; 0.905735;;;2025-01-30T15:33:45+00:00;0.758;2025-01-30T15:33:45+00:00;1.693;2025-01-30T15:33:45+00:00;1.769;2024-09-11T09:19:26+00:00;definitive;;;Gazole,E85,E10,SP98;SP95,GPLc;;SP95;Non;;Seine-Maritime;76;Normandie;28
78500001;78500;AVENUE ROBERT SHUMANN;Sartrouville;48.948; 2.198;2025-02-01T08:30:00+00:00;1.839;2025-02-01T08:30:00+00:00;0.829;2025-02-01T08:30:00+00:00;1.797;2025-02-01T08:30:00+00:00;1.9;;;;;Gazole,SP95,E85,E10,SP98;GPLc;;GPLc;Oui;Station de gonflage,Carburant additivé,Piste poids lourds,Automate CB 24/24;Yvelines;78;Île-de-France;11
29950001;29950;Domaine de Penfoul Bihan;Bénodet;47.882; -4.112;;;;;2025-01-30T12:59:00+00:00;1.729;2025-01-30T12:59:00+00:00;1.813;2022-11-12T09:18:13+00:00;definitive;2017-09-12T09:10:23+00:00;definitive;Gazole,E10,SP98;SP95,E85,GPLc;;"SP95;E85;GPLc";Oui;Toilettes publiques,Relais colis,Boutique alimentaire,Station de gonflage,Location de véhicule,Vente de gaz domestique (Butane, Propane),Automate CB 24/24,DAB (Distributeur automatique de billets);Finistère;29;Bretagne;53
62500005;62500;1, RUE DES MADELEINES;Saint-Omer;50.744; 2.26;;;2025-02-01T00:01:00+00:00;0.829;2025-02-01T00:01:00+00:00;1.759;2025-02-01T00:01:00+00:00;1.854;2021-12-29T11:48:30+00:00;definitive;;;Gazole,E85,E10,SP98;SP95,GPLc;;"SP95;GPLc";Non;Boutique alimentaire,Boutique non alimentaire,Station de gonflage,Lavage automatique,Vente de gaz domestique (Butane, Propane),DAB (Distributeur automatique de billets);Pas-de-Calais;62;Hauts-de-France;32
35440002;35440;RUE CLOS GERARD;Montreuil-sur-Ille;48.30969; -1.6672;2025-01-31T14:00:56+00:00;1.759;;;;;2025-01-31T14:00:56+00:00;1.799;;;2017-09-06T13:55:19+00:00;definitive;Gazole,SP95,SP98;E85,GPLc,E10;;"E85;GPLc;E10";Non;Vente de gaz domestique (Butane, Propane),DAB (Distributeur automatique de billets);Ille-et-Vilaine;35;Bretagne;53
31130004;31130;Chemin des Arènes;Balma;43.613; 1.488;;;2024-09-04T10:23:32+00:00;0.759;2025-01-16T09:07:27+00:00;1.759;2025-01-16T09:07:27+00:00;1.869;2017-10-09T10:52:59+00:00;definitive;;;Gazole,E85,E10,SP98;SP95,GPLc;;"SP95;GPLc";Non;Laverie,Relais colis,Lavage manuel,DAB (Distributeur automatique de billets);Haute-Garonne;31;Occitanie;76
77430001;77430;2 RUE JEAN COCTEAU;Champagne-sur-Seine;48.39575; 2.79896;;;;;2025-01-29T10:26:49+00:00;1.739;2025-01-29T10:26:49+00:00;1.839;2021-09-30T19:42:34+00:00;definitive;2022-10-20T13:37:00+00:00;definitive;Gazole,E10,SP98;SP95,E85,GPLc;;"SP95;E85;GPLc";Non;DAB (Distributeur automatique de billets);Seine-et-Marne;77;Île-de-France;11
38430004;38430;211 RUE VINCENT MARTIN;Moirans;45.324; 5.582;;;2024-09-03T11:32:13+00:00;0.758;2025-01-31T12:32:10+00:00;1.729;2025-01-22T10:13:02+00:00;1.849;2022-03-16T07:28:22+00:00;definitive;;;Gazole,E85,E10,SP98;SP95,GPLc;;"SP95;GPLc";Oui;Toilettes publiques,Relais colis,Boutique alimentaire,Restauration à emporter,Station de gonflage,Vente d'additifs carburants,Wifi,Automate CB 24/24;Isère;38;Auvergne-Rhône-Alpes;84
80690001;80690;17 ROUTE NATIONALE;Ailly-le-Haut-Clocher;50.0788052; 1.9955359;2025-01-29T09:11:31+00:00;1.92;;;;;;;;;;;Gazole,SP95;E85,GPLc,E10,SP98;;;Non;;Somme;80;Hauts-de-France;32
23700002;23700;10 ROUTE D'AUBUSSON;Auzances;46.027; 2.496;;;;;;;;;;;;;;;Gazole;;Oui;Piste poids lourds,Vente d'additifs carburants,Automate CB 24/24;Creuse;23;Nouvelle-Aquitaine;75
50500006;50500;rue de l'avenir;Carentan-les-Marais;49.304; -1.212;2025-01-30T12:31:15+00:00;1.779;;;2025-01-30T12:31:15+00:00;1.745;;;;;2017-08-30T07:40:44+00:00;definitive;Gazole,SP95,E10;E85,GPLc,SP98;;"E85;GPLc;SP98";Oui;Piste poids lourds,Lavage automatique,Vente d'additifs carburants,Automate CB 24/24;Manche;50;Normandie;28
78710004;78710;Aire de Rosny Nord - Autoroute A13 - Sens Paris;Rosny-sur-Seine;48.993; 1.634;;;;;2025-01-28T11:43:53+00:00;1.916;2025-01-28T11:43:53+00:00;1.999;;;;;Gazole,GPLc,E10,SP98;SP95,E85;;;Non;Toilettes publiques,Boutique alimentaire,Boutique non alimentaire,Restauration à emporter,Station de gonflage,Carburant additivé,Piste poids lourds,Espace bébé,Vente de gaz domestique (Butane, Propane),Bornes électriques,Vente d'additifs carburants,Wifi;Yvelines;78;Île-de-France;11
36150005;36150;92 rue grande;Vatan;47.07185865731; 1.8091628886348998;;;;;;;;;2023-09-22T13:52:51+00:00;definitive;2023-09-22T13:52:51+00:00;definitive;;;"Gazole;E10;SP98";;Non;Toilettes publiques,Boutique non alimentaire,Carburant additivé,Services réparation / entretien;Indre;36;Centre-Val de Loire;24
76340005;76340;RUE DES MARAIS;Blangy-sur-Bresle;49.930638045392996; 1.6370643011109;;;2025-01-28T16:02:27+00:00;0.71;2025-01-28T16:02:27+00:00;1.734;2025-01-28T16:02:27+00:00;1.828;2021-10-14T14:49:45+00:00;definitive;;;Gazole,E85,E10,SP98;SP95,GPLc;;"SP95;GPLc";Oui;Piste poids lourds,Vente de gaz domestique (Butane, Propane),Automate CB 24/24;Seine-Maritime;76;Normandie;28
33112001;33112;17  Rue Pierre Ralle;Saint-Laurent-Médoc;45.152; -0.81;2025-01-30T08:00:00+00:00;1.779;;;;;2025-01-30T08:00:00+00:00;1.817;;;2019-06-21T14:33:04+00:00;definitive;Gazole,SP95,SP98;E85,GPLc,E10;;"E85;GPLc";Oui;Toilettes publiques,Boutique non alimentaire,Station de gonflage,Location de véhicule,Piste poids lourds,Vente de gaz domestique (Butane, Propane),Automate CB 24/24,DAB (Distributeur automatique de billets);Gironde;33;Nouvelle-Aquitaine;75
49310001;49310;centre commercial les courtils;Lys-Haut-Layon;47.147; -0.522;2025-01-23T08:15:07+00:00;1.779;2025-01-23T08:15:07+00:00;0.779;2025-01-24T09:09:34+00:00;1.729;2025-01-23T08:15:08+00:00;1.829;;;;;Gazole,SP95,E85,E10,SP98;GPLc;;GPLc;Oui;Toilettes publiques,Relais colis,Restauration à emporter,Restauration sur place,Bar,Station de gonflage,Location de véhicule,Piste poids lourds,Lavage automatique,Vente de gaz domestique (Butane, Propane),Bornes électriques,Vente d'additifs carburants,Automate CB 24/24,DAB (Distributeur automatique de billets);Maine-et-Loire;49;Pays de la Loire;52
64000001;64000;1 Avenue du Général Leclerc;Pau;43.304772276464; -0.32975314112009996;2025-01-30T10:03:07+00:00;1.792;;;2025-01-30T10:03:08+00:00;1.739;2025-01-30T10:03:08+00:00;1.839;;;2017-09-11T11:11:07+00:00;definitive;Gazole,SP95,GPLc,E10,SP98;E85;;E85;Non;Station de gonflage,Carburant additivé,Lavage automatique,Lavage manuel,Vente de gaz domestique (Butane, Propane),DAB (Distributeur automatique de billets);Pyrénées-Atlantiques;64;Nouvelle-Aquitaine;75
1800003;1800;ROUTE DE CHALAMONT;Meximieux;45.911623208373; 5.1897144887676;;;2024-10-25T07:04:08+00:00;0.758;2025-01-31T08:39:58+00:00;1.759;2025-01-31T08:39:58+00:00;1.844;2018-10-01T15:40:31+00:00;definitive;;;Gazole,E85,E10,SP98;SP95,GPLc;;"SP95;GPLc";Non;;Ain;1;Auvergne-Rhône-Alpes;84
69651002;69400;1193 Avenue de l'Europe;Villefranche-sur-Saône;45.994; 4.742;;;;;2025-01-28T09:58:55+00:00;1.805;2025-01-28T09:58:55+00:00;1.928;2019-12-09T14:23:51+00:00;definitive;2019-12-09T14:23:51+00:00;definitive;Gazole,E10,SP98;SP95,E85,GPLc;;"SP95;E85;GPLc";Non;Station de gonflage,Piste poids lourds,Lavage automatique;Rhône;69;Auvergne-Rhône-Alpes;84
38460002;38460;route de Lyon;Crémieu;45.725; 5.248;;;;;2025-01-15T09:26:27+00:00;1.769;2025-01-15T09:26:28+00:00;1.849;2023-01-25T10:19:25+00:00;definitive;2017-09-02T16:44:17+00:00;definitive;Gazole,E10,SP98;SP95,E85,GPLc;;"SP95;E85;GPLc";Oui;Location de véhicule,Automate CB 24/24,DAB (Distributeur automatique de billets);Isère;38;Auvergne-Rhône-Alpes;84
29000015;29000;163 Rte de Bénodet D34;Quimper;47.976; -4.095;;;;;2025-02-01T09:29:28+00:00;1.699;2025-01-28T08:23:13+00:00;1.799;2024-05-29T11:17:09+00:00;definitive;2024-05-29T11:17:09+00:00;definitive;Gazole,GPLc,E10,SP98;SP95,E85;;"SP95;E85";Oui;Automate CB 24/24;Finistère;29;Bretagne;53
72120006;72120;2 AVENUE DE VENDOME;Saint-Calais;47.917; 0.752;2022-11-10T15:36:19+00:00;1.92;;;;;;;;;2017-09-07T17:47:41+00:00;definitive;Gazole,SP95;E85,GPLc,E10,SP98;;"E85;GPLc;E10;SP98";Non;Toilettes publiques,Station de gonflage,Piste poids lourds,Services réparation / entretien,Vente d'additifs carburants;Sarthe;72;Pays de la Loire;52
38250003;38250;531 AVENUE DU GENERAL DE GAULLE;Villard-de-Lans;45.074629195705995; 5.553227260991;2025-01-30T08:00:00+00:00;1.869;;;;;2025-01-30T08:00:00+00:00;1.899;;;2020-12-17T09:12:23+00:00;definitive;Gazole,SP95,SP98;E85,GPLc,E10;;"E85;GPLc;E10";Non;Station de gonflage,Services réparation / entretien;Isère;38;Auvergne-Rhône-Alpes;84
74160001;74160;Route des Vignes;Saint-Julien-en-Genevois;46.139; 6.07;;;;;2025-01-31T15:01:47+00:00;1.771;2025-01-31T15:01:47+00:00;1.867;2021-01-06T08:28:56+00:00;definitive;2025-01-27T09:28:51+00:00;temporaire;Gazole,E10,SP98;SP95,E85,GPLc;E85;"SP95;GPLc";Non;Lavage manuel,Vente de gaz domestique (Butane, Propane),DAB (Distributeur automatique de billets);Haute-Savoie;74;Auvergne-Rhône-Alpes;84
21200011;21200;28 Rue du Faubourg Madeleine;Beaune;47.02014690219401; 4.8414938015203;;;;;2025-01-28T13:40:19+00:00;1.759;2025-01-28T13:40:19+00:00;1.859;2024-06-13T14:23:36+00:00;definitive;2024-06-13T14:23:37+00:00;definitive;Gazole,E10,SP98;SP95,E85,GPLc;;"SP95;E85;GPLc";Oui;Vente de gaz domestique (Butane, Propane),Automate CB 24/24;Côte-d'Or;21;Bourgogne-Franche-Comté;27
34590001;34590;10 rue Alphonse Daudet;Marsillargues;43.662; 4.178;;;;;2025-02-01T08:57:00+00:00;1.769;2025-01-31T09:00:00+00:00;1.849;2024-01-05T11:09:37+00:00;temporaire;2020-02-24T11:34:55+00:00;definitive;Gazole,E10,SP98;SP95,E85,GPLc;SP95;"E85;GPLc";Oui;Relais colis,Boutique alimentaire,Boutique non alimentaire,Station de gonflage,Vente de gaz domestique (Butane, Propane),Automate CB 24/24;Hérault;34;Occitanie;76
54300008;54300;74. avenue du Général de Gaulle;Lunéville;48.597; 6.482;2025-01-18T10:10:46+00:00;1.83;;;;;2025-01-18T10:10:46+00:00;1.87;;;2017-08-31T19:42:54+00:00;definitive;Gazole,SP95,SP98;E85,GPLc,E10;;"E85;GPLc;E10";Non;Toilettes publiques,Boutique alimentaire,Boutique non alimentaire,Station de gonflage,Lavage automatique,Services réparation / entretien,Vente de gaz domestique (Butane, Propane);Meurthe-et-Moselle;54;Grand Est;44
43100001;43100;Route de Clermont;Brioude;45.311; 3.375;2025-01-28T11:52:14+00:00;1.83;;;;;2025-01-28T11:52:14+00:00;1.899;;;2017-09-15T09:07:40+00:00;definitive;Gazole,SP95,SP98;E85,GPLc,E10;E10;"E85;GPLc";Oui;Toilettes publiques,Relais colis,Boutique alimentaire,Boutique non alimentaire,Restauration sur place,Station de gonflage,Location de véhicule,Piste poids lourds,Vente de gaz domestique (Butane, Propane),Wifi,Automate CB 24/24,DAB (Distributeur automatique de billets);Haute-Loire;43;Auvergne-Rhône-Alpes;84
77740002;77860;62 ROUTE DE PARIS / RN 34;Saint-Germain-sur-Morin;48.884; 2.841;;;2025-02-01T00:01:00+00:00;0.779;2025-02-01T00:01:00+00:00;1.749;;;2019-04-23T12:01:39+00:00;definitive;;;Gazole,E85,GPLc,E10;SP95,SP98;SP98;SP95;Oui;Toilettes publiques,Boutique alimentaire,Boutique non alimentaire,Station de gonflage,Carburant additivé,Piste poids lourds,Lavage automatique,Lavage manuel,Vente de gaz domestique (Butane, Propane),Wifi,Automate CB 24/24,DAB (Distributeur automatique de billets);Seine-et-Marne;77;Île-de-France;11
66600002;66600;2 RUE JEANNE BARRET-MASGARRIGUE SUD;Rivesaltes;42.78; 2.899;;;2025-02-01T00:01:00+00:00;0.779;2025-02-01T00:01:00+00:00;1.749;2025-02-01T00:01:00+00:00;1.848;2022-09-09T06:25:56+00:00;definitive;;;Gazole,E85,E10,SP98;SP95,GPLc;;"SP95;GPLc";Oui;Boutique alimentaire,Boutique non alimentaire,Station de gonflage,Carburant additivé,Piste poids lourds,Lavage automatique,Lavage manuel,Bornes électriques,Automate CB 24/24;Pyrénées-Orientales;66;Occitanie;76
85320002;85320;2, rue des Acacias;Mareuil-sur-Lay-Dissais;46.53821; -1.23044;2025-01-25T08:40:35+00:00;1.749;;;2025-01-25T08:40:36+00:00;1.709;;;;;2023-01-14T13:50:54+00:00;definitive;Gazole,SP95,E10;E85,GPLc,SP98;;"E85;GPLc;SP98";Non;Vente de fioul domestique,Lavage manuel,Vente de gaz domestique (Butane, Propane),DAB (Distributeur automatique de billets);Vendée;85;Pays de la Loire;52
8110002;8110;ZAC DE Wé - 2 avenue de l'Europe;Carignan;49.637; 5.162;2025-01-31T19:00:00+00:00;1.77;2024-10-21T19:19:25+00:00;0.758;2025-01-31T19:00:00+00:00;1.732;2025-01-17T13:00:00+00:00;1.84;;;;;Gazole,SP95,E85,E10,SP98;GPLc;;GPLc;Oui;Toilettes publiques,Laverie,Restauration à emporter,Restauration sur place,Bar,Station de gonflage,Location de véhicule,Piste poids lourds,Vente de gaz domestique (Butane, Propane),Automate CB 24/24,DAB (Distributeur automatique de billets);Ardennes;8;Grand Est;44
40000002;40000;760 Avenue du Maréchal Juin;Mont-de-Marsan;43.902; -0.481;;;2025-02-01T06:19:04+00:00;0.789;2025-02-01T06:19:04+00:00;1.739;2025-02-01T06:19:04+00:00;1.849;;;;;Gazole,E85,E10,SP98;SP95,GPLc;;;Oui;Vente de pétrole lampant,Station de gonflage,Piste poids lourds,Lavage automatique,Lavage manuel,Vente de gaz domestique (Butane, Propane),Automate CB 24/24,DAB (Distributeur automatique de billets);Landes;40;Nouvelle-Aquitaine;75
31230004;31230;57 route de toulouse;L'Isle-en-Dodon;43.386; 0.835;;;;;2025-01-31T19:14:22+00:00;1.862;2025-01-31T19:14:23+00:00;1.972;;;;;Gazole,E10,SP98;SP95,E85,GPLc;;;Non;Boutique alimentaire,Boutique non alimentaire,Station de gonflage,Carburant additivé,Piste poids lourds,Vente de gaz domestique (Butane, Propane);Haute-Garonne;31;Occitanie;76
50690003;50690;16 Le Bourg Neuf;Couville;49.559; -1.667;;;;;;;2025-01-21T07:30:00+00:00;1.969;2017-09-01T07:30:38+00:00;definitive;2017-09-01T07:30:38+00:00;definitive;Gazole,SP98;SP95,E85,GPLc,E10;;"SP95;E85;GPLc;E10";Non;Toilettes publiques,Boutique alimentaire,Boutique non alimentaire,Vente de fioul domestique,Station de gonflage,Carburant additivé,Lavage manuel,Services réparation / entretien,Vente de gaz domestique (Butane, Propane),Vente d'additifs carburants,Wifi;Manche;50;Normandie;28
47480003;47480;974 AV DE CAHORS;Pont-du-Casse;44.226; 0.672;2025-01-29T11:40:12+00:00;1.874;2025-01-29T11:40:12+00:00;0.799;;;;;;;;;Gazole,SP95,E85;GPLc,E10,SP98;;"GPLc;E10;SP98";Oui;Relais colis,Boutique alimentaire,Station de gonflage,Piste poids lourds,Lavage automatique,Lavage manuel,Vente de gaz domestique (Butane, Propane),Vente d'additifs carburants,Automate CB 24/24;Lot-et-Garonne;47;Nouvelle-Aquitaine;75
63360002;63360;FONTCHENILLE;Gerzat;45.818; 3.154;;;2025-02-01T07:39:52+00:00;0.789;2025-01-30T06:19:06+00:00;1.849;2025-01-30T06:19:06+00:00;1.959;2022-10-05T15:11:35+00:00;definitive;;;Gazole,E85,E10,SP98;SP95,GPLc;;"SP95;GPLc";Oui;Toilettes publiques,Boutique alimentaire,Boutique non alimentaire,Station de gonflage,Carburant additivé,Location de véhicule,Piste poids lourds,Lavage automatique,Lavage manuel,Services réparation / entretien,Vente d'additifs carburants,Automate CB 24/24;Puy-de-Dôme;63;Auvergne-Rhône-Alpes;84
28150001;28150;rue Loigny La Bataille;Les Villages Vovéens;48.268; 1.632;;;;;2025-01-21T09:05:53+00:00;1.749;2025-01-21T09:05:53+00:00;1.819;2020-02-03T11:13:44+00:00;definitive;2020-02-03T11:13:44+00:00;definitive;Gazole,E10,SP98;SP95,E85,GPLc;;"SP95;E85;GPLc";Oui;Relais colis,Station de gonflage,Location de véhicule,Vente de gaz domestique (Butane, Propane),Automate CB 24/24,DAB (Distributeur automatique de billets);Eure-et-Loir;28;Centre-Val de Loire;24
35850001;35850;2, RUE DE BROCÉLIANDE;Romillé;48.217; -1.886;2025-01-30T08:37:31+00:00;1.779;;;2025-01-30T08:37:32+00:00;1.719;2025-01-30T08:37:32+00:00;1.819;;;2023-06-22T10:09:18+00:00;definitive;Gazole,SP95,E10,SP98;E85,GPLc;;"E85;GPLc";Non;;Ille-et-Vilaine;35;Bretagne;53
24200006;24200;Chemin des Sables;Sarlat-la-Canéda;44.87349; 1.23042;;;2025-01-30T09:30:00+00:00;0.757;2025-01-30T09:30:00+00:00;1.719;2025-01-30T09:30:00+00:00;1.816;2020-11-07T11:16:45+00:00;definitive;;;Gazole,E85,GPLc,E10,SP98;SP95;;SP95;Non;Station de gonflage,Vente de gaz domestique (Butane, Propane),DAB (Distributeur automatique de billets);Dordogne;24;Nouvelle-Aquitaine;75
91260002;91260;Avenue Camille Desmoulins;Juvisy-sur-Orge;48.695; 2.356;2025-01-18T11:04:31+00:00;1.82;2024-09-06T07:22:39+00:00;0.758;2025-01-28T04:12:53+00:00;1.73;;;;;;;Gazole,SP95,E85,E10;GPLc,SP98;;"GPLc;SP98";Oui;Laverie,Boutique alimentaire,Vente de gaz domestique (Butane, Propane),Automate CB 24/24,DAB (Distributeur automatique de billets);Essonne;91;Île-de-France;11
47200002;47200;PONT DES SABLES;Marmande;44.464; 0.14;;;2025-02-01T06:14:49+00:00;0.823;2025-02-01T06:14:50+00:00;1.821;2025-02-01T06:14:50+00:00;1.931;2021-07-28T10:36:11+00:00;definitive;;;Gazole,E85,E10,SP98;SP95,GPLc;;"SP95;GPLc";Oui;Toilettes publiques,Relais colis,Boutique alimentaire,Boutique non alimentaire,Restauration à emporter,Vente de fioul domestique,Station de gonflage,Carburant additivé,Piste poids lourds,Lavage automatique,Services réparation / entretien,Vente de gaz domestique (Butane, Propane),Automate CB 24/24;Lot-et-Garonne;47;Nouvelle-Aquitaine;75
35650003;35650;Allée du Chêne Vert;Le Rheu;48.09559599999999; -1.777546;;;2024-11-07T11:50:56+00:00;0.758;2025-01-21T09:56:58+00:00;1.719;2025-01-21T09:56:58+00:00;1.815;2024-06-20T14:18:31+00:00;definitive;;;E85,E10,SP98;Gazole,SP95,GPLc;Gazole;"SP95;GPLc";Oui;Station de gonflage,Piste poids lourds,Vente de gaz domestique (Butane, Propane),Automate CB 24/24;Ille-et-Vilaine;35;Bretagne;53
87230002;87230;14 avenue François Mitterrand;Châlus;45.653; 0.981;2025-01-25T08:25:52+00:00;1.785;;;;;2025-01-25T08:25:52+00:00;1.829;;;;;Gazole,SP95,SP98;E85,GPLc,E10;GPLc;;Oui;Laverie,Relais colis,Station de gonflage,Location de véhicule,Piste poids lourds,Vente de gaz domestique (Butane, Propane),Automate CB 24/24,DAB (Distributeur automatique de billets);Haute-Vienne;87;Nouvelle-Aquitaine;75
69800015;69800;32 ROUTE DE LYON;Saint-Priest;45.701266767444; 4.9188923985421;;;2025-02-01T00:01:00+00:00;0.779;2025-02-01T00:01:00+00:00;1.729;2025-02-01T00:01:00+00:00;1.836;2019-03-26T10:09:50+00:00;definitive;;;Gazole,E85,E10,SP98;SP95,GPLc;;"SP95;GPLc";Non;;Rhône;69;Auvergne-Rhône-Alpes;84
70004001;70004;RN 19 ROUTE DE PARIS BP 30217;Vesoul;47.633808640842; 6.158944522241599;;;2025-01-30T18:39:56+00:00;0.779;2025-01-30T18:39:56+00:00;1.819;2025-01-30T18:39:56+00:00;1.929;2023-06-29T18:58:23+00:00;definitive;;;Gazole,E85,E10,SP98;SP95,GPLc;;"SP95;GPLc";Oui;Carburant additivé,Piste poids lourds,Automate CB 24/24;Haute-Saône;70;Bourgogne-Franche-Comté;27
42120002;42120;52 Boulevard Charles de Gaulle;Le Coteau;46.011; 4.097;2025-02-01T08:43:09+00:00;1.879;2025-02-01T08:43:09+00:00;0.929;;;;;;;;;Gazole,SP95,E85,GPLc;E10,SP98;;"E10;SP98";Oui;Toilettes publiques,Boutique alimentaire,Boutique non alimentaire,Restauration à emporter,Station de gonflage,Carburant additivé,Piste poids lourds,Services réparation / entretien,Vente de gaz domestique (Butane, Propane),Vente d'additifs carburants,Automate CB 24/24;Loire;42;Auvergne-Rhône-Alpes;84
80600003;80600;76 ROUTE FLANDRE DUNKERQUE;Doullens;50.162; 2.355;;;;;2025-01-30T09:40:18+00:00;1.821;;;2017-09-05T07:16:25+00:00;definitive;2017-09-05T07:16:25+00:00;definitive;Gazole,E10;SP95,E85,GPLc,SP98;;"SP95;E85;GPLc;SP98";Non;Toilettes publiques,Boutique alimentaire,Boutique non alimentaire,Vente de fioul domestique,Station de gonflage,Carburant additivé,Piste poids lourds,Lavage automatique,Lavage manuel,Services réparation / entretien,Vente de gaz domestique (Butane, Propane),Vente d'additifs carburants;Somme;80;Hauts-de-France;32
13112005;13112;672 Route des vignerons;La Destrousse;43.384; 5.602;2025-01-24T07:00:00+00:00;1.833;2025-01-10T07:00:00+00:00;0.869;2025-01-24T07:00:00+00:00;1.799;2025-01-24T07:00:00+00:00;1.894;;;;;Gazole,SP95,E85,E10,SP98;GPLc;;GPLc;Oui;Relais colis,Boutique alimentaire,Boutique non alimentaire,Station de gonflage,Carburant additivé,Piste poids lourds,Lavage automatique,Lavage manuel,Vente de gaz domestique (Butane, Propane),Automate CB 24/24;Bouches-du-Rhône;13;Provence-Alpes-Côte d'Azur;93
34290007;34290;AIRE DE BEZIERS MONTBLANC NORD;Bessan;43.369129317048; 3.3910774626099;;;;;2025-02-01T09:30:00+00:00;2.179;2025-02-01T09:30:00+00:00;2.319;2022-02-14T13:36:37+00:00;definitive;2022-02-14T13:36:37+00:00;definitive;Gazole,GPLc,E10,SP98;SP95,E85;;"SP95;E85";Oui;Toilettes publiques,Douches,Boutique alimentaire,Boutique non alimentaire,Restauration à emporter,Restauration sur place,Station de gonflage,Carburant additivé,Aire de camping-cars,Piste poids lourds,Espace bébé,Wifi,Automate CB 24/24,DAB (Distributeur automatique de billets);Hérault;34;Occitanie;76
30110003;30110;1 Rue des Tuileries;La Grand-Combe;44.211; 4.032;;;2025-02-01T09:37:47+00:00;0.759;2025-02-01T09:37:47+00:00;1.735;2025-02-01T09:37:47+00:00;1.825;2020-09-21T09:24:47+00:00;definitive;;;Gazole,E85,E10,SP98;SP95,GPLc;;"SP95;GPLc";Oui;Laverie,Station de gonflage,Lavage automatique,Vente de gaz domestique (Butane, Propane),Automate CB 24/24,DAB (Distributeur automatique de billets);Gard;30;Occitanie;76
45160006;45160;3091 RUE MARCEL BELOT;Olivet;47.84059; 1.91418;;;;;2025-02-01T00:01:00+00:00;1.794;2025-02-01T00:01:00+00:00;1.904;2022-11-22T09:32:47+00:00;definitive;2023-01-30T11:34:59+00:00;definitive;Gazole,GPLc,E10,SP98;SP95,E85;;"SP95;E85";Non;;Loiret;45;Centre-Val de Loire;24
62460002;62460;16 RUE PIERRE BACHELET;Divion;50.469; 2.503;;;2025-02-01T11:23:25+00:00;0.769;2025-02-01T11:23:25+00:00;1.739;2025-02-01T11:23:25+00:00;1.819;2024-11-26T13:31:33+00:00;definitive;;;Gazole,E85,E10,SP98;SP95,GPLc;;"SP95;GPLc";Oui;Automate CB 24/24;Pas-de-Calais;62;Hauts-de-France;32
